country,city,accentcity,region,population,latitude,longitude
rs,ablian,Ablián,00,,44.947222,21.370833
rs,abrangje,Abrangjë,00,,42.913889,21.170556
rs,abria e eperme,Abria e Epërme,00,,42.634722,20.789444
rs,abrije e eperme,Abrije e Epërme,00,,42.634722,20.789444
rs,abrije e poshteme,Abrijë e Poshtemë,00,,42.641389,20.753611
rs,abthausen,Abthausen,00,,45.671111,18.984722
rs,acareve,Açarevë,00,,42.65,20.716667
rs,acimija,Acimija,00,,43.739722,19.788333
rs,acimovici,Acimovici,00,,43.882222,19.655278
rs,acina,Açina,00,,42.344722,21.504722
rs,ackovici,Ackovici,00,,43.149444,20.643889
rs,acumincum,Acumincum,00,,45.142778,20.2575
rs,ada,Ada,00,10259,45.8025,20.125833
rs,adam mala,Adam Mala,00,,42.186389,21.278056
rs,adasevci,Adasevci,00,,45.0775,19.221111
rs,adda,Adda,00,,45.8025,20.125833
rs,ade,Ade,00,,42.665833,21.029444
rs,adilovic mahala,Adilovic Mahala,00,,42.713333,21.253889
rs,adimovci,Adimovci,00,,44.008056,19.664167
rs,adorjan,Adorjan,00,,45.997222,20.040278
rs,adrani,Adrani,00,,43.764722,20.635556
rs,adrovac,Adrovac,00,,44.233333,20.966667
rs,adrovici,Adrovici,00,,43.459167,19.6125
rs,adzica mala,Adzica Mala,00,,44.545833,19.441111
rs,adzici,Adzici,00,,42.743056,20.046389
rs,adzine livade,Adzine Livade,00,,43.903889,20.872222
rs,adzini,Adzini,00,,42.344722,21.504722
rs,adzovice,Adzovice,00,,43.218056,21.0925
rs,adzovici,Adzovici,00,,42.709722,20.044167
rs,adzt,Adzt,00,,42.347222,21.538056
rs,agus mahala,Agus Mahala,00,,42.259444,21.114167
rs,agusovic-mahala,Agusovic-Mahala,00,,42.366111,21.224167
rs,ahishta,Ahishta,00,,43.0525,21.060833
rs,ahishte-a,Ahishte-a,00,,42.454444,21.561389
rs,ahishte,Ahishtë,00,,43.0525,21.060833
rs,ahmote,Ahmote,00,,42.336389,21.560833
rs,ajdacici,Ajdacici,00,,43.658056,20.200556
rs,ajdarevic mahala,Ajdarevic Mahala,00,,42.651111,20.941667
rs,ajducica,Ajducica,00,,45.249167,20.957222
rs,ajetovic mahala,Ajetovic Mahala,00,,42.718611,21.248333
rs,ajkobila,Ajkobila,00,,42.733333,21.478333
rs,ajkovila,Ajkovila,00,,42.733333,21.478333
rs,ajnevce,Ajnevce,00,,42.629167,21.546667
rs,ajnovce,Ajnovce,00,,42.629167,21.546667
rs,ajvalija,Ajvalija,00,,42.618056,21.180833
rs,ajvazi,Ajvazi,00,,42.453056,21.345556
rs,akllap,Akllap,00,,42.541389,21.241389
rs,akmacici,Akmacici,00,,43.424167,19.870278
rs,akosnice,Akosnicë,00,,42.606667,21.253056
rs,akrashtice,Akrashticë,00,,42.825278,20.909444
rs,alabak,Alabak,00,,42.794444,21.220833
rs,alabana,Alabana,00,,43.292778,21.348611
rs,alagina reka,Alagina Reka,00,,42.728333,20.159444
rs,alakince,Alakince,00,,42.695833,22.144167
rs,alakinci,Alakinci,00,,42.695833,22.144167
rs,alavandici,Alavandici,00,,43.253056,19.678056
rs,albana e madhe,Albana e Madhe,00,,42.603333,21.020556
rs,albana e vogel,Albana e Vogël,00,,42.606111,21.028333
rs,albanci,Albanci,00,,42.435278,22.1225
rs,albanija,Albanija,00,,43.391389,21.176111
rs,albanik,Albanik,00,,42.856667,21.249444
rs,albaniku,Albaniku,00,,42.856667,21.249444
rs,albona e eperme,Albona e Epërme,00,,43.0075,21.118333
rs,albona e poshtme,Albona e Poshtme,00,,42.988889,21.135278
rs,aldinac,Aldinac,00,,43.529444,22.445556
rs,aldina reka,Aldina Reka,00,,43.451944,22.516944
rs,aldinci,Aldinci,00,,43.529444,22.445556
rs,aleksandrovac,Aleksandrovac,00,,44.445,21.211667
rs,aleksandrov gaj,Aleksandrov Gaj,00,,45.292222,21.136667
rs,aleksandrovo,Aleksandrovo,00,,45.636944,20.592778
rs,aleksa santic,Aleksa Santic,00,,45.930833,19.329722
rs,aleksici,Aleksici,00,,43.018611,21.318611
rs,aleksinac,Aleksinac,02,16652,43.541667,21.707778
rs,aleksinacki bujmir,Aleksinacki Bujmir,00,,43.512778,21.749167
rs,aleksinacki rudnici uglja,Aleksinacki Rudnici Uglja,00,,43.558056,21.691389
rs,aleksine,Aleksine,00,,42.978056,22.289722
rs,aleksino,Aleksino,00,,43.054444,21.409167
rs,alexanderkirchen,Alexanderkirchen,00,,44.739167,20.6975
rs,alibunar,Alibunar,00,3353,45.080833,20.965833
rs,aliderce,Aliderce,00,,42.290833,21.733333
rs,aligerce,Aligerce,00,,42.290833,21.733333
rs,alil-mahala,Alil-Mahala,00,,42.190833,21.213889
rs,alin potok,Alin Potok,00,,43.701389,19.7975
rs,alisbrunn,Alisbrunn,00,,45.080833,20.965833
rs,aliverovice,Aliverovice,00,,43.145278,20.169167
rs,alivit,Alivit,00,,42.340278,21.212778
rs,aljinovice,Aljinovice,00,,43.331944,19.847222
rs,aljinovici,Aljinovici,00,,43.331944,19.847222
rs,aljovic,Aljovic,00,,42.421667,20.8025
rs,aljsic,Aljsic,00,,42.390278,21.602222
rs,aljudovo,Aljudovo,00,,44.506667,21.428889
rs,allaga,Allaga,00,,42.728333,20.159444
rs,allibunar,Allibunar,00,,45.080833,20.965833
rs,almad,Almád,00,,45.078056,21.392222
rs,alsoaradi,Alsóaradi,00,,45.383056,20.301389
rs,alsoittebe,Alsóittebe,00,,45.559444,20.694444
rs,alsokabol,Alsókabol,00,,45.227778,20.021667
rs,alsokovil,Alsókovil,00,,45.227778,20.021667
rs,alt-betsche,Alt-Betsche,00,,45.618889,20.036111
rs,alt-borscha,Alt-Borscha,00,,44.870278,20.458611
rs,alt-etschka,Alt-Etschka,00,,45.293889,20.456667
rs,alt-futok,Alt-Futok,00,,45.241111,19.71
rs,altfuttak,Altfuttak,00,,45.241111,19.71
rs,alt-kanischa,Alt-Kanischa,00,,46.066667,20.05
rs,alt-keer,Alt-Keer,00,,45.453611,19.685833
rs,alt-ker,Alt-Ker,00,,45.453611,19.685833
rs,alt-letz,Alt-Letz,00,,45.283611,20.963056
rs,alt-palanka,Alt-Palanka,00,,44.8425,21.326667
rs,alt-pasua,Alt-Pasua,00,,44.985,20.160833
rs,alt-pazua,Alt-Pazua,00,,44.985,20.160833
rs,alt-sankamen,Alt-Sankamen,00,,45.142778,20.2575
rs,alt-schowe,Alt-Schowe,00,,45.450278,19.619167
rs,alt-sivac,Alt-Sivac,00,,45.704167,19.379722
rs,alt-siwatz,Alt-Siwatz,00,,45.704167,19.379722
rs,alt-stapar,Alt-Stapar,00,,45.661389,19.205
rs,alt-werbass,Alt-Werbass,00,,45.571389,19.640833
rs,altwiesen,Altwiesen,00,,45.453611,19.685833
rs,aluga,Aluga,00,,43.951111,19.367778
rs,aluge,Aluge,00,,43.128611,20.607778
rs,alulovice,Alulovice,00,,43.208333,20.467778
rs,alulovici,Alulovici,00,,43.208333,20.467778
rs,aluraj,Aluraj,00,,42.644444,20.711111
rs,alurevic,Alurevic,00,,42.644444,20.711111
rs,amajic,Amajic,00,,44.319167,19.149167
rs,amarevi,Amarevi,00,,42.645833,22.358889
rs,amatevic mahala,Amatevic Mahala,00,,42.678889,21.289444
rs,ambariste,Ambariste,00,,44.373056,19.197778
rs,americ,Americ,00,,44.472222,20.643889
rs,amjcici,Amjcici,00,,43.473889,19.925833
rs,amzici,Amzici,00,,43.494444,19.845
rs,anallap,Anallap,00,,42.951111,21.156944
rs,anallapi,Anallapi,00,,42.951111,21.156944
rs,analum,Analum,00,,42.555278,21.657222
rs,analumi,Analumi,00,,42.555278,21.657222
rs,andelici,Andelici,00,,43.763889,20.228889
rs,andelinkovci,Andelinkovci,00,,42.456111,22.05
rs,andelkovska mahala,Andelkovska Mahala,00,,42.510556,21.969444
rs,andici,Andici,00,,43.836389,19.695833
rs,andiri,Andiri,00,,43.836389,19.695833
rs,andraca,Andraca,00,,44.434722,19.181667
rs,andrasfoldje,Andrásföldje,00,,45.815,19.636111
rs,andrejevac,Andrejevac,00,,45.383056,20.301389
rs,andrejevac aradac,Andrejevac Aradac,00,,45.383056,20.301389
rs,andrici,Andrici,00,,44.387222,19.699722
rs,androvac,Androvac,00,,42.597778,21.288056
rs,androvce,Androvce,00,,42.597778,21.288056
rs,angelince,Angelince,00,,42.417222,22.164722
rs,anicici,Anicici,00,,43.473889,19.925833
rs,antalfalva,Antalfalva,00,,45.111667,20.621389
rs,antici,Antici,00,,43.191111,21.389722
rs,antonica mala,Antonica Mala,00,,44.531944,19.322778
rs,antonici,Antonici,00,,44.478611,19.218056
rs,anzici,Anzici,00,,43.831111,19.68
rs,apathin,Apathin,00,,45.671111,18.984722
rs,apati,Apati,00,,45.671111,18.984722
rs,apatin,Apatin,02,19677,45.671111,18.984722
rs,apfeldorf,Apfeldorf,00,,44.949444,20.599722
rs,aqareva,Aqareva,00,,42.65,20.716667
rs,aqareve,Aqarevë,00,,42.65,20.716667
rs,arac,Arac,00,,45.598611,20.135556
rs,aracs,Aracs,00,,45.598611,20.135556
rs,aradac,Aradac,00,,45.383056,20.301389
rs,aradatz,Aradatz,00,,45.383056,20.301389
rs,aradaz,Aradaz,00,,45.383056,20.301389
rs,aradec,Aradec,00,,45.383056,20.301389
rs,aradi,Aradi,00,,45.383056,20.301389
rs,aradin,Aradin,00,,42.316389,21.246389
rs,arandelovac,Arandelovac,00,24674,44.306944,20.56
rs,arangjelovac,Arangjelovac,00,,44.306944,20.56
rs,arapovac,Arapovac,00,,44.455,20.388056
rs,arapovice,Arapovice,00,,43.123611,20.254167
rs,arapovici,Arapovici,00,,43.123611,20.254167
rs,arat e gjata,Arat e Gjata,00,,42.714444,20.079722
rs,arbana,Arbana,00,,42.231667,20.719722
rs,arban-a,Arban-a,00,,42.739722,20.369722
rs,arbanas,Arbanas,00,,42.286667,20.698056
rs,arbanasce,Arbanasce,00,,43.273611,21.637778
rs,arbanasci,Arbanasci,00,,43.273611,21.637778
rs,arbanaska,Arbanaska,00,,43.078333,21.438333
rs,arbane,Arbanë,00,,42.231667,20.719722
rs,arbenesh,Arbënesh,00,,42.7275,20.484722
rs,arbeneshi,Arbëneshi,00,,42.7275,20.484722
rs,arbnia,Arbnia,00,,42.695,20.338611
rs,arbulici,Arbulici,00,,43.418889,20.365
rs,ardesh,Ardesh,00,,42.053333,20.7
rs,ardeshi,Ardeshi,00,,42.053333,20.7
rs,ardian,Ardian,00,,42.623889,20.460833
rs,ardiani,Ardiani,00,,42.623889,20.460833
rs,ariliaca,Ariliaca,00,,42.584167,21.001944
rs,ariljaca,Ariljaca,00,,42.584167,21.001944
rs,arilje,Arilje,02,6921,43.753056,20.095556
rs,aritonova mahala,Aritonova Mahala,00,,42.332778,21.863333
rs,arkod,Árkod,00,,45.268889,20.758333
rs,arlat,Arlat,00,,42.551389,20.835278
rs,arllat,Arllat,00,,42.551389,20.835278
rs,arllati,Arllati,00,,42.551389,20.835278
rs,arnajevo,Arnajevo,00,,44.501111,20.375556
rs,arnautovici,Arnautovici,00,,43.979722,19.990278
rs,arnaut polje,Arnaut Polje,00,,43.250833,19.682778
rs,arnautska mahala,Arnautska Mahala,00,,42.5375,22.448333
rs,arpatarlo,Árpatarló,00,,45.008056,19.822222
rs,arpataro,Árpataró,00,,45.008056,19.822222
rs,arrishta,Arrishta,00,,42.665278,20.357222
rs,arrnjet,Arrnjet,00,,42.5075,20.317778
rs,arrnjeti,Arrnjeti,00,,42.5075,20.317778
rs,arsenovici,Arsenovici,00,,44.521667,19.4775
rs,arsici,Arsici,00,,43.33,21.16
rs,artana,Artana,00,,42.617778,21.419722
rs,artane,Artanë,00,,42.617778,21.419722
rs,arucevic,Arucevic,00,,42.638611,20.717778
rs,asance mahala,Asance Mahala,00,,42.318889,21.150556
rs,asane,Asane,00,,42.273333,21.735833
rs,asani,Asani,00,,42.273333,21.735833
rs,asanja,Asanja,00,,44.755556,20.082222
rs,asanovac,Asanovac,00,,43.137778,21.645556
rs,asanovo selo,Asanovo Selo,00,,43.450278,20.382222
rs,ashlan,Ashlan,00,,42.809444,20.873333
rs,asmansha mahala,Asmansha Mahala,00,,42.31,21.594722
rs,asmanska mahala,Asmanska Mahala,00,,42.309722,21.601389
rs,astrazub,Astrazub,00,,42.448333,20.7
rs,astrozub,Astrozub,00,,42.448333,20.7
rs,ategan mahala,Ategan Mahala,00,,42.533056,21.945833
rs,atenica,Atenica,00,,43.858333,20.357778
rs,atmada,Atmada,00,,42.242778,20.681667
rs,atmadza,Atmadza,00,,42.242778,20.681667
rs,atmagje,Atmagjë,00,,42.242778,20.681667
rs,avala,Avala,00,,44.425833,19.928889
rs,avdijevic mahala,Avdijevic Mahala,00,,42.406667,20.938889
rs,avdovi,Avdovi,00,,43.4275,19.616111
rs,avramovica mala,Avramovica Mala,00,,44.539167,19.438611
rs,avramovici,Avramovici,00,,44.46,19.236944
rs,azanja,Azanja,00,4603,44.433056,20.879722
rs,azbresnica,Azbresnica,00,,43.357222,21.696111
rs,azemovic mahala,Azemovic Mahala,00,,42.413056,20.984722
rs,azir mahala,Azir Mahala,00,,42.275556,21.535833
rs,baatsch,Baatsch,00,,45.391944,19.236667
rs,ba,Ba,00,,44.158333,20.195278
rs,babac,Babac,00,,43.24,19.939167
rs,babaic,Babaic,00,,44.233056,20.205
rs,babaj,Babaj,00,,42.374722,21.552778
rs,babaj baks,Babaj Baks,00,,42.361667,20.334167
rs,babaj bokes,Babaj Bokës,00,,42.361667,20.334167
rs,babaj boks,Babaj Boks,00,,42.361667,20.334167
rs,babaj i bokes,Babaj i Bokës,00,,42.361667,20.334167
rs,babajic,Babajic,00,,44.233056,20.205
rs,babaj-lac,Babaj-Laç,00,,42.486111,20.348889
rs,babajloc,Babajloc,00,,42.486111,20.348889
rs,baba karinci,Baba Karinci,00,,42.635278,21.995833
rs,baballoq,Baballoq,00,,42.486111,20.348889
rs,babaloc,Babaloc,00,,42.486111,20.348889
rs,babanici,Babanici,00,,44.442222,20.930556
rs,babastanici,Babastanici,00,,42.353056,21.884722
rs,babatrenci,Babatrenci,00,,42.421667,21.916667
rs,babe,Babe,00,,44.529722,20.526944
rs,babica,Babica,00,,42.963056,20.517222
rs,babice,Babice,00,,42.621944,20.416667
rs,babicevi,Babicevi,00,,42.805556,22.283889
rs,babici,Babici,00,,42.963056,20.517222
rs,babicko,Babicko,00,,43.137778,22.000833
rs,babimoc,Babimoc,00,,42.743333,21.078889
rs,babina luka,Babina Luka,00,,44.359167,19.960278
rs,babina poljana,Babina Poljana,00,,42.465833,22.181667
rs,babin,Babin,00,,44.888056,19.7025
rs,babin dol,Babin Dol,00,,42.571111,22.07
rs,babin kal,Babin Kal,00,,43.294444,22.379167
rs,babin most,Babin Most,00,,42.743333,21.078889
rs,babin potok,Babin Potok,00,,43.230556,21.630556
rs,babiq,Babiq,00,,42.621944,20.416667
rs,bablak,Bablak,00,,42.4475,21.150556
rs,babljak,Babljak,00,,42.4475,21.150556
rs,babotinac,Babotinac,00,,43.324722,21.513889
rs,babotinci,Babotinci,00,,43.324722,21.513889
rs,babrez,Babrez,00,,43.095,20.517222
rs,babudovica,Babudovica,00,,42.966389,20.635
rs,babushi i muhaxhereve,Babushi i Muhaxherëve,00,,42.467222,21.183611
rs,babusnica,Babusnica,00,4606,43.059722,22.411667
rs,babus srpski,Babus Srpski,00,,42.448611,21.175278
rs,bacaklija,Bacaklija,00,,44.819444,19.438056
rs,bac,Bac,00,6110,45.391944,19.236667
rs,bac-ceb,Bac-Ceb,00,,45.269444,19.525278
rs,bace,Bace,00,,43.220278,21.345278
rs,bacetici,Bacetici,00,,43.751389,19.826111
rs,bacevac,Bacevac,00,,43.698889,19.821667
rs,bacevci,Bacevci,00,,43.386111,20.854722
rs,bacevica,Bacevica,00,,43.790833,22.088056
rs,bacevina,Bacevina,00,,42.950556,21.625
rs,baceviste,Baceviste,00,,42.655278,21.946111
rs,bacevo,Bacevo,00,,43.011667,22.844444
rs,bacica,Bacica,00,,43.129167,20.199167
rs,bacice,Bacice,00,,43.129167,20.199167
rs,bacija,Bacija,00,,43.334167,20.043056
rs,bacije,Bacije,00,,43.054167,21.419444
rs,bacijevac,Bacijevac,00,,42.717222,22.1475
rs,bacijevce,Bacijevce,00,,42.717222,22.1475
rs,bacilovina,Bacilovina,00,,43.281667,19.639722
rs,bacina,Bacina,00,,43.728056,21.299444
rs,bacinac,Bacinac,00,,44.507778,20.916389
rs,bacinci,Bacinci,00,,45.081667,19.308889
rs,bacine,Bacine,00,,43.458889,19.400556
rs,backa,Backa,00,,42.010278,20.666944
rs,backa dobra,Backa Dobra,00,,45.453611,19.685833
rs,backa palanka,Backa Palanka,02,30208,45.250833,19.391944
rs,backa topola,Backa Topola,02,16082,45.815,19.636111
rs,backe,Baçkë,00,,42.010278,20.666944
rs,backi breg,Backi Breg,00,,45.921389,18.928889
rs,backi brestovac,Backi Brestovac,00,,45.617222,19.269722
rs,backi gracac,Backi Gracac,00,,45.554722,19.323611
rs,backi jarak,Backi Jarak,02,6250,45.370278,19.875
rs,backi monostor,Backi Monostor,00,,45.793611,18.935833
rs,backi petrovac,Backi Petrovac,00,6649,45.360556,19.591667
rs,backi sokolac,Backi Sokolac,00,,45.849444,19.539444
rs,backi vinogradi,Backi Vinogradi,00,,46.133333,19.866667
rs,backo dobro,Backo Dobro,00,,45.4975,19.689167
rs,backo dobro polje,Backo Dobro Polje,00,,45.4975,19.689167
rs,backo dusanovo,Backo Dusanovo,00,,45.906667,19.783333
rs,backo gradiste,Backo Gradiste,00,5453,45.532778,20.028333
rs,backo novo salo,Backo Novo Salo,00,,45.293333,19.141389
rs,backo novo selo,Backo Novo Selo,00,,45.293333,19.141389
rs,backo petrovo selo,Backo Petrovo Selo,00,7129,45.708056,20.075278
rs,bacoglava,Bacoglava,00,,43.136944,21.242778
rs,bacsarokszallas,Bácsárokszállás,00,,45.370278,19.875
rs,bacs,Bács,00,,45.391944,19.236667
rs,bacsbresztovacz,Bácsbresztovácz,00,,45.617222,19.269722
rs,bacsbukin,Bácsbukin,00,,45.303056,19.261667
rs,bacs-cseb,Bács-Cséb,00,,45.269444,19.525278
rs,bacsdoroszlo,Bácsdoroszló,00,,45.608611,19.190556
rs,bacs-feketehegy,Bács-Feketehegy,00,,45.664167,19.699167
rs,bacsfoldvar,Bácsföldvár,00,,45.532778,20.028333
rs,bacsgyulafalva,Bácsgyulafalva,00,,45.795556,19.380833
rs,bacskahadikfalva,Bácskahadikfalva,00,,45.413889,19.698333
rs,bacskeresztur,Bácskeresztúr,00,,45.562778,19.415833
rs,bacskertes,Bácskertes,00,,45.736111,19.009722
rs,bacskossuthfalva,Bácskossuthfalva,00,,45.868889,19.466111
rs,bacskula,Bácskula,00,,45.608889,19.526389
rs,bacsmartonos,Bácsmartonos,00,,46.116667,20.05
rs,bacs-novoszelo,Bács-Novoszelo,00,,45.293333,19.141389
rs,bacsordas,Bácsordas,00,,45.495,19.188056
rs,bacsszentivan,Bácsszentiván,00,,45.678611,19.086667
rs,bacs-szenttamas,Bács-Szenttamás,00,,45.553889,19.802778
rs,bacsszollos,Bacsszollos,00,,46.133333,19.866667
rs,bacsszolos,Bacsszolos,00,,46.133333,19.866667
rs,bacstopolya,Bácstopolya,00,,45.815,19.636111
rs,bacstovaros,Bácstóváros,00,,45.353611,19.325
rs,bacsujfalu,Bácsújfalu,00,,45.409167,19.298333
rs,bacsujlak,Bácsújlak,00,,45.293333,19.141389
rs,bactovaros,Bactovaros,00,,45.353611,19.325
rs,baculovina,Baculovina,00,,43.281667,19.639722
rs,bacviste,Bacviste,00,,42.661389,22.018056
rs,badanj,Badanj,00,,43.307222,20.7
rs,badince,Badince,00,,42.973889,22.01
rs,badisici,Badisici,00,,44.388611,19.432222
rs,badljevica,Badljevica,00,,44.528056,20.785556
rs,badnjevac,Badnjevac,00,,43.170278,21.7875
rs,badnjevo,Badnjevo,00,,44.238889,22.502222
rs,badofc,Badofc,00,,42.609722,21.2225
rs,badovac,Badovac,00,,42.609722,21.2225
rs,badovinci,Badovinci,00,5402,44.785833,19.371389
rs,badradzi,Badradzi,00,,42.463889,21.001667
rs,bafti mahala,Bafti Mahala,00,,42.256389,21.195556
rs,bagacice,Bagacice,00,,43.288611,20.07
rs,bagasce,Bagasce,00,,43.432222,20.645278
rs,bagase,Bagase,00,,43.432222,20.645278
rs,bagasi,Bagasi,00,,42.536667,20.373333
rs,bagrdan,Bagrdan,00,,44.0675,21.179444
rs,bagremovo,Bagremovo,00,,45.743889,19.814167
rs,bahremovic mahala,Bahremovic Mahala,00,,42.615,20.793889
rs,baica,Baica,00,,42.716667,20.389167
rs,baica e elshanit,Baica e Elshanit,00,,42.52,20.915278
rs,baice,Baicë,00,,42.52,20.915278
rs,bainovska mahala,Bainovska Mahala,00,,42.403333,22.293056
rs,baja,Baja,00,,42.726944,20.391389
rs,baja e pejes,Baja e Pejës,00,,42.726944,20.391389
rs,bajcetina,Bajcetina,00,,43.864167,20.891944
rs,bajcevica,Bajcevica,00,,42.408889,22.466389
rs,bajcina,Bajcina,00,,42.951111,21.156944
rs,bajcince,Bajcince,00,,43.321667,21.544167
rs,bajcinovce,Bajcinovce,00,,42.912222,21.096111
rs,bajdan mahala,Bajdan Mahala,00,,42.414444,20.756667
rs,baje,Bajë,00,,42.465278,20.781111
rs,bajellap,Bajëllap,00,,42.819444,21.158056
rs,bajellapi,Bajëllapi,00,,42.819444,21.158056
rs,bajevac,Bajevac,00,,44.379722,20.058611
rs,bajevica,Bajevica,00,,43.103056,20.477778
rs,bajevici,Bajevici,00,,43.380278,20.281667
rs,bajeza,Bajëza,00,,42.716667,20.389167
rs,bajez,Bajëz,00,,42.716667,20.389167
rs,bajgora,Bajgora,00,,42.955,21.016111
rs,bajgore,Bajgorë,00,,42.955,21.016111
rs,bajica kraj,Bajica Kraj,00,,44.661111,20.585
rs,bajica mala,Bajica Mala,00,,44.598056,19.336944
rs,bajici,Bajici,00,,44.034167,19.728889
rs,bajina basta,Bajina Basta,02,9812,43.970833,19.5675
rs,bajinci,Bajinci,00,,42.784167,22.250556
rs,bajinova mahala,Bajinova Mahala,00,,42.645556,22.421944
rs,bajinovci,Bajinovci,00,,42.645556,22.421944
rs,bajir,Bajir,00,,44.491944,19.282222
rs,bajmak,Bajmak,00,,45.967778,19.423333
rs,bajmok,Bajmok,00,8599,45.967778,19.423333
rs,bajnok,Bajnok,00,,45.967778,19.423333
rs,bajnovace,Bajnovace,00,,44.0025,19.725
rs,bajnovici,Bajnovici,00,,43.450556,19.611111
rs,bajovica lazovi,Bajovica Lazovi,00,,43.036111,21.174444
rs,bajovici,Bajovici,00,,43.380278,20.281667
rs,bajqine,Bajqinë,00,,42.951111,21.156944
rs,bajraktari,Bajraktari,00,,42.418889,20.866111
rs,bajraktarska mahala,Bajraktarska Mahala,00,,42.344444,22.378056
rs,bajralije,Bajralije,00,,42.68,21.752778
rs,bajrovici,Bajrovici,00,,42.571389,21.496111
rs,bajsa,Bajsa,00,,45.779167,19.585
rs,bajske,Bajskë,00,,42.973333,20.780833
rs,bakaj,Bakaj,00,,42.666389,20.603611
rs,bakaji,Bakaji,00,,42.666389,20.603611
rs,bakalovina,Bakalovina,00,,43.383889,19.793333
rs,bakici,Bakici,00,,44.097222,19.613611
rs,bakionica,Bakionica,00,,43.861389,20.044444
rs,bakovici,Bakovici,00,,43.38,20.209167
rs,bakraclici,Bakraclici,00,,43.883889,19.785
rs,baksa,Baksa,00,,42.486111,20.312222
rs,baks,Baks,00,,42.719167,20.876667
rs,bakshi,Bakshi,00,,42.723333,21.105556
rs,baksija,Baksija,00,,42.723333,21.105556
rs,balaban,Balaban,00,,42.792222,21.321944
rs,balabane,Balabane,00,,42.792222,21.321944
rs,balacka,Balacka,00,,44.389444,19.884722
rs,balaj,Balaj,00,,42.379722,21.103333
rs,balajinac,Balajinac,00,,43.274444,21.7775
rs,balajnac,Balajnac,00,,43.274444,21.7775
rs,balance,Balance,00,,42.412222,21.365278
rs,balanovac,Balanovac,00,,43.585278,22.165833
rs,balcak,Balcak,00,,43.181111,21.579444
rs,balej pivnica,Balej Pivnica,00,,44.166944,22.587222
rs,balejske pivnice,Balejske Pivnice,00,,44.166944,22.587222
rs,baletice,Baletice,00,,43.186111,20.425556
rs,balez,Balëz,00,,42.832778,21.385278
rs,balic,Balic,00,,42.379722,21.103333
rs,balice,Balice,00,,43.227222,19.693889
rs,balicevac,Balicevac,00,,43.2875,21.687778
rs,balici,Balici,00,,43.227222,19.693889
rs,balinac,Balinac,00,,43.555556,22.395556
rs,balince,Balince,00,,42.55,20.784722
rs,balinci,Balinci,00,,43.555556,22.395556
rs,balinovac,Balinovac,00,,42.567778,21.915833
rs,balinovce,Balinovce,00,,42.732222,22.053611
rs,balinovic,Balinovic,00,,44.257778,19.760556
rs,baljen,Baljen,00,,43.075278,20.046389
rs,baljevac,Baljevac,00,1625,43.3925,20.636389
rs,baljevicka ka mahala,Baljevicka Ka Mahala,00,,42.686389,21.699722
rs,baljevicka mahala,Baljevicka Mahala,00,,42.686389,21.699722
rs,baljevic mahala,Baljevic Mahala,00,,42.703889,21.255
rs,baljkovac,Baljkovac,00,,43.966389,20.921944
rs,ballaban,Ballaban,00,,42.792222,21.321944
rs,ballabani,Ballabani,00,,42.792222,21.321944
rs,ballance,Ballancë,00,,42.412222,21.365278
rs,ballofc,Ballofc,00,,42.895278,21.236667
rs,ballofci,Ballofci,00,,42.895278,21.236667
rs,ballsh,Ballsh,00,,42.895278,21.236667
rs,ballshi,Ballshi,00,,42.895278,21.236667
rs,balnice,Balnice,00,,42.55,20.784722
rs,balosave,Balosave,00,,43.866389,20.785833
rs,balovac,Balovac,00,,42.895278,21.236667
rs,balovce,Balovce,00,,42.895278,21.236667
rs,balovic mahala,Balovic Mahala,00,,42.512778,20.760833
rs,balta berilovac,Balta Berilovac,00,,43.393611,22.482778
rs,balta berilovica,Balta Berilovica,00,,43.393611,22.482778
rs,baltijance,Baltijance,00,,42.704444,22.233611
rs,baluga,Baluga,00,,43.859444,20.416111
rs,baluga ljubicka,Baluga Ljubicka,00,,43.893056,20.423333
rs,baluga trnavska,Baluga Trnavska,00,,43.859444,20.416111
rs,balvanjestie,Balvanjestie,00,,44.818889,20.875833
rs,balvanyesti,Balvanyesti,00,,44.818889,20.875833
rs,balza,Balza,00,,42.832778,21.385278
rs,bambaci,Bambaci,00,,43.928611,19.563889
rs,banajni,Banajni,00,,44.536667,19.981111
rs,banat arandjelovo,Banat Arandjelovo,00,,46.066667,20.25
rs,banater hof,Banater Hof,00,,45.520556,20.514167
rs,banater neudorf,Banater Neudorf,00,,44.989722,20.783611
rs,banat karlovac,Banat Karlovac,00,,45.047222,21.016111
rs,banat novo selo,Banat Novo Selo,00,,44.989722,20.783611
rs,banatska dubica,Banatska Dubica,00,,45.270833,20.828056
rs,banatska palanka,Banatska Palanka,00,,44.8425,21.326667
rs,banatska subotica,Banatska Subotica,00,,44.982778,21.343056
rs,banatska topla,Banatska Topla,00,,45.6725,20.465556
rs,banatska topola,Banatska Topola,00,,45.6725,20.465556
rs,banatski brestovac,Banatski Brestovac,00,,44.727222,20.805278
rs,banatski despotovac,Banatski Despotovac,00,,45.365278,20.664167
rs,banatski dusanovac,Banatski Dusanovac,00,,45.520556,20.514167
rs,banatski dvor,Banatski Dvor,00,,45.520556,20.514167
rs,banatski karlovac,Banatski Karlovac,00,5799,45.047222,21.016111
rs,banatski manastir,Banatski Manastir,00,,45.961111,20.281944
rs,banatski monostar,Banatski Monostar,00,,45.961111,20.281944
rs,banatski monostor,Banatski Monostor,00,,45.961111,20.281944
rs,banatski sokolac,Banatski Sokolac,00,,45.266667,21.083333
rs,banatsko aleksandrovo,Banatsko Aleksandrovo,00,,45.636944,20.592778
rs,banatsko arandelovo,Banatsko Arandelovo,00,,46.066667,20.25
rs,banatsko karadordevo,Banatsko Karadordevo,00,,45.583333,20.563056
rs,banatsko kraljevicevo,Banatsko Kraljevicevo,00,,44.966389,20.693611
rs,banatsko novo selo,Banatsko Novo Selo,00,7397,44.989722,20.783611
rs,banatsko rankovicevo,Banatsko Rankovicevo,00,,45.047222,21.016111
rs,banatsko veliko selo,Banatsko Veliko Selo,00,,45.827222,20.599167
rs,banatsko visnjicevo,Banatsko Visnjicevo,00,,45.445278,20.680556
rs,bancarevo,Bancarevo,00,,43.271667,22.113333
rs,bandera,Bandera,00,,42.535556,20.361389
rs,bandulic,Bandulic,00,,42.516389,21.153333
rs,banicina,Banicina,00,,44.291389,20.929722
rs,banja aleksinacka,Banja Aleksinacka,00,,43.643333,21.871111
rs,banja,Banja,00,,42.555,21.992222
rs,banja koviljaca,Banja Koviljaca,00,6540,44.5125,19.158333
rs,banja mataruge,Banja Mataruge,00,,43.688611,20.610556
rs,banjanci,Banjanci,00,,43.639167,20.535833
rs,banjane,Banjane,00,,44.536667,19.981111
rs,banjani,Banjani,00,,44.536667,19.981111
rs,banje,Banje,00,,42.970278,20.563056
rs,banjevac,Banjevac,00,,44.352778,19.388889
rs,banjevice,Banjevice,00,,43.450556,19.611111
rs,banjica,Banjica,00,,42.287778,21.164444
rs,banjska,Banjska,00,,42.858611,20.953889
rs,banjska reka,Banjska Reka,00,,42.987222,20.755556
rs,banjske,Banjskë,00,,42.858611,20.953889
rs,banjski dol,Banjski Dol,00,,42.99,22.680556
rs,banjski suvi do,Banjski Suvi Do,00,,42.976944,20.751667
rs,bankovac,Bankovac,00,,43.440278,21.738333
rs,bankovce,Bankovce,00,,42.856389,22.24
rs,bankovci,Bankovci,00,,42.856389,22.24
rs,banmonostor,Bánmonostor,00,,45.212222,19.613333
rs,bannule,Bannulë,00,,42.516389,21.153333
rs,banoschter,Banoschter,00,,45.212222,19.613333
rs,banostar,Banostar,00,,45.212222,19.613333
rs,banostor,Banostor,00,,45.212222,19.613333
rs,banovde,Banovdë,00,,42.937222,20.788889
rs,banov do,Banov Do,00,,42.937222,20.788889
rs,banovici,Banovici,00,,43.235,20.741667
rs,banovo polje,Banovo Polje,00,,44.911389,19.446944
rs,banski dol,Banski Dol,00,,42.99,22.680556
rs,banstadt,Banstadt,00,,44.870833,20.640278
rs,bapsko polje,Bapsko Polje,00,,43.787778,20.558611
rs,bara,Bara,00,,42.422778,22.002778
rs,barachhaza,Barachháza,00,,45.283611,20.963056
rs,baracic,Baracic,00,,42.524444,20.540833
rs,baraczhaza,Baraczháza,00,,45.283611,20.963056
rs,baraina,Baraina,00,,42.830556,21.302778
rs,baraine,Barainë,00,,42.830556,21.302778
rs,barajevo,Barajevo,00,8828,44.608889,20.454722
rs,barajevo,Barajevo,02,8828,44.578889,20.415833
rs,barakovci,Barakovci,00,,43.130833,20.489722
rs,barakovici,Barakovici,00,,43.130833,20.489722
rs,baralici,Baralici,00,,43.766667,20.204444
rs,baraljevac,Baraljevac,00,,42.381111,21.895556
rs,baran,Baran,00,,42.575278,20.418611
rs,baranda,Baranda,00,,45.085278,20.443333
rs,barane,Barane,00,,42.575278,20.418611
rs,baranje,Baranje,00,,44.454444,19.196389
rs,baranski lug,Baranski Lug,00,,42.591111,20.362778
rs,baranyos,Bárányos,00,,44.887778,20.535556
rs,baratarci,Baratarci,00,,42.348056,22.365833
rs,baratarska mahala,Baratarska Mahala,00,,42.344444,22.378056
rs,barati,Barati,00,,44.110278,19.691667
rs,baratovici,Baratovici,00,,44.110278,19.691667
rs,barbace,Barbace,00,,42.369167,21.960278
rs,barbarusince,Barbarusince,00,,42.480278,22.009167
rs,barbatovac,Barbatovac,00,,43.228056,21.258889
rs,bardanski kraj,Bardanski Kraj,00,,44.638333,20.271389
rs,bardhaj,Bardhaj,00,,42.666667,20.647222
rs,bardhan,Bardhan,00,,42.666667,20.647222
rs,bardhani,Bardhani,00,,42.666667,20.647222
rs,bardhi i madh,Bardhi i Madh,00,,42.634722,21.023611
rs,bardhi i vogel,Bardhi i Vogël,00,,42.610833,21.037222
rs,bardici,Bardici,00,,42.695833,20.950556
rs,bardonic,Bardonic,00,,42.525278,20.447778
rs,bardosan,Bardosan,00,,42.404167,20.504722
rs,bardosane,Bardosanë,00,,42.404167,20.504722
rs,bardusan,Bardusan,00,,42.404167,20.504722
rs,bare,Bare,00,,42.961667,20.976389
rs,barelic,Barelic,00,,42.463889,22.045278
rs,bares,Bares,00,,44.693056,19.765833
rs,bari,Bari,00,,42.583056,20.333889
rs,barica,Barica,00,,42.47,22.198056
rs,baric,Baric,00,6837,44.652222,20.259444
rs,barice,Barice,00,,45.183333,21.083333
rs,bari civlik,Bari Civlik,00,,43.139444,22.541111
rs,barija,Barija,00,,42.5475,22.255556
rs,barileve,Barilevë,00,,42.755,21.119167
rs,bariljevo,Bariljevo,00,,42.755,21.119167
rs,barilovica,Barilovica,00,,44.331667,20.303333
rs,barjaktarevici,Barjaktarevici,00,,43.770278,19.773889
rs,barjaktar mahala,Barjaktar Mahala,00,,42.361944,20.928611
rs,barje,Barje,00,,42.392778,22.155833
rs,barje ciflik,Barje Ciflik,00,,43.139444,22.541111
rs,barje civlik,Barje Civlik,00,,43.139444,22.541111
rs,barkovo,Barkovo,00,,43.048056,20.480278
rs,barlad,Barlad,00,,45.243333,20.582222
rs,barlaj,Barlaj,00,,42.694167,20.093611
rs,barlovo,Barlovo,00,,43.180833,21.350556
rs,barosevac,Barosevac,00,,44.398611,20.368889
rs,barovce,Barovce,00,,42.918611,21.233333
rs,barzilovica,Barzilovica,00,,44.331667,20.303333
rs,basahid,Basahid,00,,45.641111,20.414167
rs,basaid,Basaid,00,,45.641111,20.414167
rs,basajid,Basajid,00,,45.641111,20.414167
rs,basara,Basara,00,,43.156667,22.677222
rs,basca,Basca,00,,42.944167,20.549444
rs,basceluci,Basceluci,00,,44.515556,19.227222
rs,baschaid,Baschaid,00,,45.641111,20.414167
rs,bascoluci,Bascoluci,00,,44.515556,19.227222
rs,basejci,Basejci,00,,42.364167,21.875556
rs,bashash,Bashash,00,,42.453889,20.260833
rs,basici,Basici,00,,42.304444,21.470278
rs,basin,Basin,00,,44.296944,20.851389
rs,bastanska reka,Bastanska Reka,00,,42.987222,20.755556
rs,bastav,Bastav,00,,44.358889,19.5275
rs,bastovanska mala,Bastovanska Mala,00,,44.526667,19.443611
rs,basusa,Basusa,00,,42.453889,20.260833
rs,batahir,Batahir,00,,42.997778,20.876389
rs,batahire,Batahire,00,,42.997778,20.876389
rs,batahiri,Batahiri,00,,42.997778,20.876389
rs,bataire,Bataire,00,,42.997778,20.876389
rs,batajnica,Batajnica,00,,44.904722,20.276389
rs,batalage,Batalage,00,,44.520556,19.865278
rs,batal,Batal,00,,42.648056,21.287222
rs,batal mahala,Batal Mahala,00,,42.648056,21.287222
rs,batar,Batar,00,,44.44,19.159167
rs,batatin mahala,Batatin Mahala,00,,42.868611,21.288889
rs,batina,Batina,00,,43.491944,20.5425
rs,batinac,Batinac,00,,43.921389,21.438056
rs,batinici,Batinici,00,,43.215,20.346389
rs,batkovici,Batkovici,00,,43.561389,19.388056
rs,batlava,Batlava,00,,42.836389,21.245
rs,batllava,Batllava,00,,42.836389,21.245
rs,batllave,Batllavë,00,,42.836389,21.245
rs,batnjik,Batnjik,00,,43.218889,20.574722
rs,batocina,Batocina,00,5622,44.153611,21.081667
rs,batote,Batote,00,,43.3,21.1
rs,batovac,Batovac,00,,44.675556,21.063889
rs,batrace,Batrace,00,,42.935833,20.395833
rs,batrage,Batrage,00,,42.935833,20.395833
rs,batrovci,Batrovci,00,,45.052778,19.1325
rs,batsch,Batsch,00,,45.391944,19.236667
rs,batsch-brestowatz,Batsch-Brestowatz,00,,45.617222,19.269722
rs,batschka bodjani,Batschka Bodjani,00,,45.388333,19.107222
rs,batsch-monoschtor,Batsch-Monoschtor,00,,45.793611,18.935833
rs,batsch-neudorf,Batsch-Neudorf,00,,45.293333,19.141389
rs,batsch-sentiwan,Batsch-Sentiwan,00,,45.678611,19.086667
rs,batsch-topola,Batsch-Topola,00,,45.815,19.636111
rs,batulovce,Batulovce,00,,42.973611,22.075278
rs,batusa,Batusa,00,,42.453889,20.260833
rs,batuse,Batuse,00,,42.589167,21.068333
rs,batushe,Batushë,00,,42.453889,20.260833
rs,batusinac,Batusinac,00,,43.261111,21.822778
rs,batusnica,Batusnica,00,,43.261111,21.822778
rs,baulovici,Baulovici,00,,43.555,20.110556
rs,bavane,Bavane,00,,43.381111,19.725278
rs,bavaniste,Bavaniste,00,6027,44.818889,20.875833
rs,bawanischte,Bawanischte,00,,44.818889,20.875833
rs,bazovica,Bazovica,00,,42.405,22.219444
rs,bazovik,Bazovik,00,,43.300278,22.449444
rs,bazsahida,Bazsahida,00,,45.641111,20.414167
rs,bazsalhida,Bazsalhida,00,,45.641111,20.414167
rs,bebici,Bebici,00,,44.192222,19.693889
rs,becanj,Becanj,00,,43.884722,20.554444
rs,bec,Bec,00,,42.443056,20.449444
rs,becej,Becej,02,25562,45.618889,20.036111
rs,becelar,Becelar,00,,42.247222,21.379722
rs,becevica,Becevica,00,,43.988056,20.635278
rs,becic,Becic,00,,42.753611,20.890556
rs,becicherecu mare,Becicherecu Mare,00,,45.383611,20.381944
rs,becirad,Becirad,00,,42.572778,20.310833
rs,beciraj,Beciraj,00,,42.741111,20.06
rs,beciri,Beciri,00,,42.443611,21.355278
rs,becir mahala,Becir Mahala,00,,42.353333,20.933333
rs,becirovici,Becirovici,00,,43.339167,19.738333
rs,becirovina,Becirovina,00,,43.4425,19.3525
rs,becmen,Becmen,00,,44.779444,20.208611
rs,becse,Becse,00,,45.618889,20.036111
rs,becsej,Becsej,00,,45.618889,20.036111
rs,becskerek,Becskerek,00,,45.383611,20.381944
rs,becuk,Becuk,00,,42.726389,20.970833
rs,becvari,Becvari,00,,43.38,20.545556
rs,bedina varos,Bedina Varos,00,,43.571389,20.228333
rs,begafo,Begafo,00,,45.421944,20.48
rs,begaj,Begaj,00,,42.7325,20.445
rs,begaljica,Begaljica,00,,44.631944,20.694444
rs,bega-szent-gyorgy,Béga-Szent-György,00,,45.485,20.549722
rs,begec,Begec,00,,45.236667,19.623056
rs,begecs,Begecs,00,,45.236667,19.623056
rs,begejci,Begejci,00,,45.508611,20.606389
rs,begej sveti durad,Begej Sveti Durad,00,,45.485,20.549722
rs,begluk,Begluk,00,,43.058889,20.829722
rs,begova luka,Begova Luka,00,,43.479722,19.282222
rs,begovi,Begovi,00,,42.711667,22.293056
rs,begovici,Begovici,00,,42.356944,21.036389
rs,begovi mahala,Begovi Mahala,00,,42.711667,22.293056
rs,begov lukavac,Begov Lukavac,00,,42.7325,20.445
rs,begovo,Begovo,00,,42.833056,20.986667
rs,begrace,Begracë,00,,42.310278,21.242778
rs,begunce,Begunce,00,,42.303611,21.3875
rs,beke,Beke,00,,43.963333,20.257222
rs,bekova,Bekova,00,,43.256944,20.475278
rs,bekrici,Bekrici,00,,42.366667,21.855556
rs,bela,Bela,00,,43.233056,22.720556
rs,belacerk,Belacërk,00,,42.356667,20.595556
rs,bela crkva,Bela Crkva,00,,42.356667,20.595556
rs,bela crkva,Bela Crkva,02,10586,44.8975,21.417222
rs,belahovo,Belahovo,00,,43.2275,19.671667
rs,belaj,Belaj,00,,42.576667,20.210556
rs,belaje,Belaje,00,,42.576667,20.210556
rs,bela klada,Bela Klada,00,,44.7175,19.42
rs,belanica,Belanica,00,,42.458611,20.816944
rs,belanovce,Belanovce,00,,42.646389,21.953056
rs,belanovica,Belanovica,00,,44.2475,20.396667
rs,belanska,Belanska,00,,43.036667,20.540556
rs,bela palanka,Bela Palanka,02,8763,43.218333,22.311111
rs,bela reka,Bela Reka,00,,43.578889,19.898889
rs,belasica,Belasica,00,,43.126111,21.005278
rs,bela stena,Bela Stena,00,,43.095833,21.035833
rs,bela voda,Bela Voda,00,,42.513889,22.343889
rs,bela voda mahala,Bela Voda Mahala,00,,42.508333,22.353056
rs,bela zemlja,Bela Zemlja,00,,43.807222,19.789722
rs,belbradic,Belbradic,00,,43.659722,22.4075
rs,belce mahala,Belce Mahala,00,,42.416944,20.763333
rs,belcevici,Belcevici,00,,43.381111,20.346111
rs,beleg,Beleg,00,,42.534167,20.317222
rs,belegis,Belegis,00,,45.021667,20.335556
rs,belegu,Belegu,00,,42.534167,20.317222
rs,belenica,Belenica,00,,42.529167,21.322222
rs,bele vode,Bele Vode,00,,43.230833,20.255278
rs,belgrad,Belgrad,00,,44.818611,20.468056
rs,belgrade,Belgrade,02,1115200,44.818611,20.468056
rs,belgrado,Belgrado,00,,44.818611,20.468056
rs,beli breg,Beli Breg,00,,42.525556,21.810556
rs,belica,Belica,00,,42.75,20.633333
rs,belica sor,Belica Sor,00,,44.695,19.490833
rs,belic,Belic,00,,44.238333,19.906389
rs,beli gaj,Beli Gaj,00,,44.012778,19.884444
rs,beli kamen,Beli Kamen,00,,43.148889,21.570556
rs,beli  kamen,Beli  Kamen,00,,43.689167,20.214444
rs,beli majur,Beli Majur,00,,45.288056,19.302778
rs,belince,Belincë,00,,42.418056,21.608333
rs,beli potok,Beli Potok,00,3645,43.535833,22.082222
rs,belisevo,Belisevo,00,,42.667222,21.951667
rs,belja,Belja,00,,42.246111,21.239444
rs,beljajka,Beljajka,00,,44.06,21.441944
rs,beljak,Beljak,00,,43.248333,20.722222
rs,belja-mala,Belja-Mala,00,,42.201667,21.290278
rs,belje male,Belje Male,00,,43.473889,21.691111
rs,beljevac,Beljevac,00,,44.359167,20.664167
rs,beljevina,Beljevina,00,,44.088056,21.948056
rs,beljina,Beljina,00,,43.88,20.317222
rs,beljin,Beljin,00,,44.611944,19.966111
rs,bellabrad,Bellabrad,00,,42.118333,20.683333
rs,bellanice,Bellanicë,00,,42.458611,20.816944
rs,bellaqefci i madh,Bellaqefci i Madh,00,,42.634722,21.023611
rs,bellaqefci i vogel,Bellaqefci i Vogël,00,,42.610833,21.037222
rs,bellasice,Bellasicë,00,,43.126111,21.005278
rs,belle,Belle,00,,42.576667,20.210556
rs,belleja,Belleja,00,,42.576667,20.210556
rs,belleje,Bellejë,00,,42.576667,20.210556
rs,belloberda,Belloberda,00,,43.235,20.821667
rs,belloberde,Belloberdë,00,,43.235,20.821667
rs,bellobrad,Bellobrad,00,,42.118333,20.683333
rs,bellobrat,Bellobrat,00,,42.118333,20.683333
rs,bellogaraca,Bellogaraca,00,,42.310278,21.242778
rs,bellolin,Bellolin,00,,43.237222,21.395278
rs,bellopaq,Bellopaq,00,,42.724444,20.226944
rs,bellopaqi,Bellopaqi,00,,42.724444,20.226944
rs,bellopoja,Bellopoja,00,,42.641111,20.285556
rs,bellopoje,Bellopojë,00,,42.641111,20.285556
rs,bellopole,Bellopole,00,,42.641111,20.285556
rs,belluqe,Belluqë,00,,43.176944,20.723333
rs,belobabe,Belobabe,00,,43.356111,19.691944
rs,belo blato,Belo Blato,00,,45.272778,20.375
rs,belobrace,Belobrace,00,,43.458056,20.575833
rs,belobrad,Belobrad,00,,42.118333,20.683333
rs,belobrdani,Belobrdani,00,,43.651944,20.838889
rs,belobrde,Belobrdë,00,,43.235,20.821667
rs,belo brdo,Belo Brdo,00,,43.235,20.821667
rs,belobrod,Belobrod,00,,42.118333,20.683333
rs,belogos,Belogos,00,,43.296389,21.471667
rs,belograce,Belograce,00,,42.310278,21.242778
rs,belogradce,Belogradce,00,,42.310278,21.242778
rs,belohovo,Belohovo,00,,43.2275,19.671667
rs,beloinje,Beloinje,00,,43.390833,22.165556
rs,beloljin,Beloljin,00,,43.237222,21.395278
rs,belonjin,Belonjin,00,,43.237222,21.395278
rs,belopac,Belopac,00,,42.724444,20.226944
rs,beloperica,Beloperica,00,,43.969167,19.973333
rs,belo polje,Belo Polje,00,,42.641111,20.285556
rs,belopolje,Belopolje,00,,42.778889,20.578056
rs,belo polje,Belo Polje,00,,42.811667,21.200278
rs,belosavci,Belosavci,00,,44.333056,20.703333
rs,belosevac,Belosevac,00,,43.985556,20.926944
rs,belosevic,Belosevic,00,,44.262778,19.946111
rs,belotic,Belotic,00,,44.576944,19.7175
rs,belotici,Belotici,00,,43.900278,19.946944
rs,belotinac,Belotinac,00,,43.265556,21.8525
rs,belotin,Belotin,00,,43.237222,21.395278
rs,belotince,Belotince,00,,43.265556,21.8525
rs,belov do,Belov Do,00,,42.8425,20.572222
rs,belovodic,Belovodic,00,,44.367222,19.485556
rs,beluce,Beluce,00,,43.176944,20.723333
rs,belusa,Belusa,00,,43.615278,20.013056
rs,belus,Belus,00,,42.483333,22.516667
rs,belusic,Belusic,00,,43.784722,21.1475
rs,belut,Belut,00,,42.483333,22.516667
rs,bemjak,Bëmjak,00,,42.929444,20.565833
rs,bencuk,Bencuk,00,,42.726389,20.970833
rs,bent,Bent,00,,43.886667,20.466944
rs,beoce,Beoce,00,,43.341944,20.626389
rs,beoci,Beoci,00,,43.341944,20.626389
rs,beocic,Beocic,00,,43.843611,21.197222
rs,beocin,Beocin,00,8122,45.198333,19.7225
rs,beocsin,Beocsin,00,,45.198333,19.7225
rs,beodra,Beodra,00,,45.721667,20.303056
rs,beodra-dragutinovo,Beodra-Dragutinovo,00,,45.721667,20.303056
rs,beograd,Beograd,02,,44.818611,20.468056
rs,beomuzevic,Beomuzevic,00,,44.303056,19.771667
rs,beotschin,Beotschin,00,,45.198333,19.7225
rs,berance mahala,Berance Mahala,00,,42.789722,20.768056
rs,beranje,Beranje,00,,44.659444,21.340833
rs,berava,Berava,00,,45.389444,19.073889
rs,berbatovo,Berbatovo,00,,43.257222,21.943056
rs,berberishte,Berberishtë,00,,43.128611,20.686667
rs,berberiste,Berberiste,00,,43.128611,20.686667
rs,bercevac,Bercevac,00,,42.388333,21.648889
rs,bercinac,Bercinac,00,,43.408056,21.821667
rs,bercinovac,Bercinovac,00,,43.581944,22.298889
rs,bercinovci,Bercinovci,00,,43.581944,22.298889
rs,berdosan,Berdosan,00,,42.404167,20.504722
rs,berduj,Berduj,00,,43.004444,22.376111
rs,bereg,Béreg,00,,45.921389,18.928889
rs,beregh,Beregh,00,,45.921389,18.928889
rs,beresztoc,Beresztóc,00,,44.727222,20.805278
rs,beresztocz,Beresztócz,00,,44.727222,20.805278
rs,beresztovacz,Beresztovácz,00,,44.727222,20.805278
rs,berevce,Berevce,00,,42.245556,21.024444
rs,berevci,Berevci,00,,42.245556,21.024444
rs,berg an der donau,Berg an der Donau,00,,45.921389,18.928889
rs,berg,Berg,00,,45.921389,18.928889
rs,berilje,Berilje,00,,43.213056,21.624444
rs,berilovac,Berilovac,00,,43.158611,22.614167
rs,berin izvor,Berin Izvor,00,,42.933056,22.545
rs,berisa,Berisa,00,,42.533333,20.85
rs,berisa-mahala,Berisa-Mahala,00,,42.322778,21.145
rs,berisane,Berisane,00,,43.242222,21.547222
rs,berisani,Berisani,00,,43.242222,21.547222
rs,berisha,Berisha,00,,42.533333,20.85
rs,berisici,Berisici,00,,43.303333,20.264167
rs,berivojca,Berivojca,00,,42.567222,21.586389
rs,berivojce,Berivojce,00,,42.567222,21.586389
rs,berjaha,Berjaha,00,,42.420833,20.291667
rs,berjah,Berjah,00,,42.420833,20.291667
rs,berkasovo,Berkasovo,00,,45.150556,19.261944
rs,berkova,Bërkova,00,,42.674722,20.530833
rs,berkovac,Berkovac,00,,44.195,20.144167
rs,berkove,Berkovë,00,,42.674722,20.530833
rs,berkovo,Berkovo,00,,42.674722,20.530833
rs,berlovci,Berlovci,00,,44.503889,19.162222
rs,berlovine,Berlovine,00,,44.203333,19.418333
rs,bernice e eperme,Bërnice e Epërme,00,,42.713611,21.149722
rs,bernice e poshteme,Bërnicë e Poshtëme,00,,42.706111,21.134722
rs,bernjak,Bërnjak,00,,42.929444,20.565833
rs,berovica,Berovica,00,,43.031389,22.581667
rs,berrivojsa,Berrivojsa,00,,42.567222,21.586389
rs,berrivojse,Berrivojsë,00,,42.567222,21.586389
rs,bersici,Bersici,00,,44.057222,20.328333
rs,berzheniku,Berzheniku,00,,42.643611,20.334167
rs,besarovina,Besarovina,00,,43.95,19.471111
rs,beschka,Beschka,00,,45.129722,20.066111
rs,besdan,Besdan,00,,45.852778,18.930556
rs,besenovacki prnjavor,Besenovacki Prnjavor,00,,45.113056,19.706111
rs,besenovo,Besenovo,00,,45.082778,19.703611
rs,besenyo,Besenyo,00,,45.082778,19.703611
rs,beserovina,Beserovina,00,,43.95,19.471111
rs,beshenovo,Beshenovo,00,,45.082778,19.703611
rs,besiana,Besiana,00,,42.910556,21.193056
rs,besiane,Besianë,00,,42.910556,21.193056
rs,besi,Besi,00,,42.753611,21.148056
rs,besinje,Besinje,00,,42.753611,21.148056
rs,beska,Beska,02,6328,45.129722,20.066111
rs,beslici,Beslici,00,,43.846667,19.563056
rs,besni fok,Besni Fok,00,,44.997222,20.408056
rs,besolica,Besolica,00,,43.088333,21.156944
rs,bessenovo,Bessenovo,00,,45.082778,19.703611
rs,besska,Besska,00,,45.129722,20.066111
rs,betschkerek,Betschkerek,00,,45.383611,20.381944
rs,bezanija,Bezanija,00,,44.806667,20.378333
rs,bezdam,Bezdam,00,,45.852778,18.930556
rs,bezdan,Bezdan,00,5270,45.852778,18.930556
rs,bezenic,Bezenic,00,,42.665833,20.805556
rs,beziste,Beziste,00,,43.122778,22.334444
rs,biba,Biba,00,,42.375556,21.195833
rs,bibe,Bibë,00,,42.375556,21.195833
rs,biberovici,Biberovici,00,,43.272222,19.869444
rs,bica,Bica,00,,42.679444,20.600833
rs,bicani,Bicani,00,,43.537222,21.0675
rs,bicec,Biçec,00,,42.245556,21.214444
rs,bicevac,Bicevac,00,,42.245556,21.214444
rs,bigla,Bigla,00,,42.726667,22.096389
rs,biglar,Biglar,00,,42.350833,22.198611
rs,bigrenica,Bigrenica,00,,44.010833,21.497778
rs,bijela,Bijela,00,,44.144444,19.526667
rs,bijela voda,Bijela Voda,00,,43.439167,19.3425
rs,bijelina,Bijelina,00,,44.415,19.403333
rs,bijelo polje,Bijelo Polje,00,,42.703611,22.156944
rs,bikac,Bikac,00,,45.641111,20.414167
rs,bikacs,Bikács,00,,45.648056,20.39
rs,bikatsch,Bikatsch,00,,45.641111,20.414167
rs,bikic do,Bikic Do,00,,45.155278,19.295
rs,bikinja,Bikinja,00,,44.664167,21.573333
rs,bikinje,Bikinje,00,,44.664167,21.573333
rs,bikovo,Bikovo,00,,46.016667,19.766667
rs,bilace,Bilaçë,00,,42.355833,21.749444
rs,bilegija,Bilegija,00,,43.129444,19.870278
rs,bilic,Bilic,00,,45.849167,19.121944
rs,bilici,Bilici,00,,45.849167,19.121944
rs,bilic mahala,Bilic Mahala,00,,42.534444,20.8275
rs,bilinca,Bilinca,00,,42.418056,21.608333
rs,bilince,Bilince,00,,42.418056,21.608333
rs,bilinica,Bilinica,00,,42.418056,21.608333
rs,bilinice,Bilinicë,00,,42.418056,21.608333
rs,biljaca,Biljaca,00,,42.355833,21.749444
rs,biljace,Biljace,00,,42.355833,21.749444
rs,biljanica,Biljanica,00,,42.638889,22.295556
rs,biljanovac,Biljanovac,00,,43.411389,20.665833
rs,biljega,Biljega,00,,43.710833,19.974722
rs,biljeg,Biljeg,00,,43.322778,21.676667
rs,billushe,Billushë,00,,42.171389,20.675556
rs,bilnice-a,Bilnice-a,00,,42.418056,21.608333
rs,bilo,Bilo,00,,42.956111,22.7475
rs,bilusa,Bilusa,00,,42.171389,20.675556
rs,bilusha,Bilusha,00,,42.171389,20.675556
rs,bilushe,Bilushë,00,,42.171389,20.675556
rs,binac,Binac,00,,42.299444,21.364167
rs,binaj,Binaj,00,,42.186389,20.548889
rs,binca,Binca,00,,42.299444,21.364167
rs,bince,Binçe,00,,42.299444,21.364167
rs,bingje,Bingjë,00,,42.678056,20.618611
rs,bingola,Bingola,00,,45.100556,19.4475
rs,bingula,Bingula,00,,45.100556,19.4475
rs,binice,Binice,00,,43.371111,20.490833
rs,binici,Binici,00,,43.371111,20.490833
rs,binovac,Binovac,00,,44.573056,20.870556
rs,binovce,Binovce,00,,42.693333,22.110278
rs,binovci,Binovci,00,,42.693333,22.110278
rs,binxha,Binxha,00,,42.679444,20.600833
rs,bioc,Bioc,00,,43.118889,20.079722
rs,bioce,Bioce,00,,43.118889,20.079722
rs,biocin,Biocin,00,,43.224167,20.642778
rs,biohane,Biohane,00,,42.941111,20.337222
rs,bioska,Bioska,00,,43.872222,19.66
rs,biqa,Biqa,00,,42.679444,20.600833
rs,biqe,Biqë,00,,42.678056,20.618611
rs,biqevc,Biqevc,00,,42.245556,21.214444
rs,bircani,Bircani,00,,44.246111,19.681111
rs,birndorf,Birndorf,00,,45.932222,19.101667
rs,birovo,Birovo,00,,43.051111,20.769167
rs,biserica alba,Biserica Alba,00,,44.8975,21.417222
rs,biserske kuce,Biserske Kuce,00,,43.562778,20.842222
rs,bishtan,Bishtan,00,,42.614444,20.420556
rs,bishtazhin,Bishtazhin,00,,42.355556,20.511944
rs,bisini,Bisini,00,,42.8775,22.408611
rs,biskupici,Biskupici,00,,43.365833,19.783333
rs,biskuplje,Biskuplje,00,,44.740278,21.386944
rs,bistaj,Bistaj,00,,42.385,21.604167
rs,bistanska reka,Bistanska Reka,00,,42.987222,20.755556
rs,bistar,Bistar,00,,42.374444,22.439444
rs,bistazhini,Bistazhini,00,,42.355556,20.511944
rs,bistrazin,Bistrazin,00,,42.355556,20.511944
rs,bistr,Bistr,00,,42.374444,22.439444
rs,bistrica,Bistrica,00,,42.841944,22.072222
rs,bistrica na limu,Bistrica na Limu,00,,43.461111,19.665556
rs,bistrice,Bistricë,00,,43.225278,20.718889
rs,bistrice e shales,Bistricë e Shalës,00,,43.010556,20.865833
rs,bitia e eperme,Bitia e Epërme,00,,42.2725,21.029722
rs,bitia e poshteme,Bitia e Poshtëme,00,,42.253056,21.043056
rs,biti e eperme,Biti e Epërme,00,,42.2725,21.029722
rs,biti e poshteme,Biti e Poshtëme,00,,42.253056,21.043056
rs,bitvrda,Bitvrda,00,,42.694444,22.267778
rs,bitvrde,Bitvrde,00,,42.694444,22.267778
rs,bivolak,Bivolak,00,,42.714167,21.008333
rs,bivolice,Bivolice,00,,43.348333,19.733056
rs,bivoljak,Bivoljak,00,,42.714167,21.008333
rs,bizaci,Bizaci,00,,42.470278,22.0475
rs,bjecani,Bjecani,00,,43.238333,19.743611
rs,bjelaci,Bjelaci,00,,43.2625,19.672778
rs,bjelicici,Bjelicici,00,,43.698056,19.891111
rs,bjelik,Bjelik,00,,44.005556,19.768056
rs,bjelis,Bjelis,00,,43.8,19.727778
rs,bjelobabe,Bjelobabe,00,,43.356111,19.691944
rs,bjelohova,Bjelohova,00,,43.2275,19.671667
rs,bjelopac,Bjelopac,00,,42.724444,20.226944
rs,bjeloperica,Bjeloperica,00,,43.969167,19.973333
rs,bjeloperice,Bjeloperice,00,,43.969167,19.973333
rs,bjelo polje,Bjelo Polje,00,,42.641111,20.285556
rs,bjelosica,Bjelosica,00,,43.530556,19.442222
rs,bjelotici,Bjelotici,00,,43.900278,19.946944
rs,bjelusa,Bjelusa,00,,43.615278,20.013056
rs,blaca,Blaca,00,,43.061944,20.372222
rs,blac,Blaç,00,,42.124167,20.735556
rs,blace,Blace,00,,42.423056,20.8625
rs,blaci,Blaçi,00,,42.689167,20.489722
rs,blagaja,Blagaja,00,,42.665278,20.357222
rs,blagaje,Blagaje,00,,42.665278,20.357222
rs,blagojevici,Blagojevici,00,,43.169722,21.524722
rs,blagojev kamen,Blagojev Kamen,00,,44.4375,21.856389
rs,blagun,Blagun,00,,42.533889,22.024722
rs,blaq,Blaq,00,,42.124167,20.735556
rs,blato,Blato,00,,42.542222,21.645
rs,blauschutz,Blauschütz,00,,44.72,20.884444
rs,blazevo,Blazevo,00,,43.230278,20.908333
rs,blazici,Blazici,00,,43.430556,20.937778
rs,blendija,Blendija,00,,43.651111,21.918611
rs,bleniste,Bleniste,00,,42.353056,21.138333
rs,blerim,Blerim,00,,42.631111,20.936389
rs,blerimi,Blerimi,00,,42.631111,20.936389
rs,bletar,Bletar,00,,42.645833,20.870556
rs,bletari,Bletari,00,,42.645833,20.870556
rs,bleyersdorf,Bleyersdorf,00,,45.269444,19.525278
rs,blinaje-a,Blinaje-a,00,,42.400556,21.544444
rs,blinishte,Blinishtë,00,,42.310833,20.4775
rs,bliznaci,Bliznaci,00,,42.701111,22.279444
rs,bliznacka mahala,Bliznacka Mahala,00,,42.4375,22.473611
rs,bliznak,Bliznak,00,,44.179167,21.545833
rs,blizonje,Blizonje,00,,44.359722,19.906944
rs,bljac,Bljac,00,,42.124167,20.735556
rs,bljuvanovac,Bljuvanovac,00,,44.123333,22.598611
rs,bllace,Bllacë,00,,42.423056,20.8625
rs,bllagaja,Bllagaja,00,,42.665278,20.357222
rs,bllagaje,Bllagajë,00,,42.665278,20.357222
rs,bllata,Bllata,00,,42.542222,21.645
rs,bllate,Bllatë,00,,42.832778,21.385278
rs,bllazheve,Bllazhevë,00,,43.230278,20.908333
rs,bobajaninci,Bobajaninci,00,,42.4375,22.135
rs,bobarina buka,Bobarina Buka,00,,42.519444,22.393333
rs,bob,Bob,00,,42.2275,21.250556
rs,bobici,Bobici,00,,44.246944,19.591111
rs,bobija,Bobija,00,,44.518889,19.653889
rs,bobiste,Bobiste,00,,43.013611,21.98
rs,bobote,Bobote,00,,43.458333,21.115833
rs,bobova,Bobova,00,,44.266667,19.703889
rs,bobovac,Bobovac,00,,42.431389,20.559444
rs,bobov,Bobov,00,,44.266667,19.703889
rs,bobovik,Bobovik,00,,43.118333,20.427778
rs,boboviste,Boboviste,00,,43.562222,21.646389
rs,bobovo,Bobovo,00,,44.229444,21.273333
rs,bobradolan,Bobradolan,00,,42.385833,20.748056
rs,bobusnica,Bobusnica,00,,43.059722,22.411667
rs,boca,Boca,00,,45.354444,20.829722
rs,bocar,Bocar,00,,45.771111,20.282222
rs,bocatic,Bocatic,00,,44.8375,19.480556
rs,boce,Boce,00,,43.4325,20.7675
rs,boceva mahala,Boceva Mahala,00,,42.8775,22.120833
rs,bocevica,Bocevica,00,,42.8775,22.120833
rs,bocinska mahala,Bocinska Mahala,00,,42.426389,21.8725
rs,bocka,Boçka,00,,42.010278,20.666944
rs,bocsar,Bocsár,00,,45.771111,20.282222
rs,bodani,Bodani,00,,45.388333,19.107222
rs,bodgyan,Bodgyán,00,,45.388333,19.107222
rs,bodjani,Bodjani,00,,45.388333,19.107222
rs,bodrog-monostorszeg,Bodrog-Monostorszeg,00,,45.793611,18.935833
rs,bodus mala,Bodus Mala,00,,44.391389,19.631944
rs,bogace,Bogaçe,00,,42.635833,20.636389
rs,bogacici,Bogacici,00,,43.288611,20.07
rs,bogaj,Bogaj,00,,42.742778,20.053889
rs,bogalinac,Bogalinac,00,,43.8225,21.033056
rs,bogaljinci,Bogaljinci,00,,43.8225,21.033056
rs,bogaras,Bogaras,00,,45.778333,19.804444
rs,bogaros,Bogaros,00,,45.934444,19.9275
rs,bogatic,Bogatic,00,7370,44.8375,19.480556
rs,bogatici,Bogatici,00,,44.197222,19.826944
rs,bogava,Bogava,00,,44.095,21.325556
rs,bog,Bog,00,,42.742778,20.053889
rs,bogdanica,Bogdanica,00,,44.015278,20.105
rs,bogdanje,Bogdanje,00,,43.636389,21.024722
rs,bogdanovac,Bogdanovac,00,,42.407778,21.803333
rs,bogdanovach,Bogdanovach,00,,42.407778,21.803333
rs,bogdanova mahala,Bogdanova Mahala,00,,42.669444,22.315556
rs,bogdanovce,Bogdanovce,00,,42.407778,21.803333
rs,bogdanovci,Bogdanovci,00,,42.407778,21.803333
rs,bogdanovica,Bogdanovica,00,,44.475,20.081944
rs,bogdanovici,Bogdanovici,00,,43.485278,19.674722
rs,bogdanska mahala,Bogdanska Mahala,00,,42.445278,22.061667
rs,bogdinac,Bogdinac,00,,43.663333,21.983056
rs,boge,Boge,00,,42.742778,20.053889
rs,boget,Bogët,00,,42.742778,20.053889
rs,bogic,Bogic,00,,42.463333,20.769167
rs,bogicevici,Bogicevici,00,,42.608611,20.4
rs,bogise,Bogise,00,,43.375,21.184444
rs,bogojeva,Bogojeva,00,,45.530556,19.132778
rs,bogojevac,Bogojevac,00,,43.043889,21.502222
rs,bogojevce,Bogojevce,00,,43.049722,21.968889
rs,bogojevici,Bogojevici,00,,43.7175,20.093889
rs,bogojevo,Bogojevo,00,,45.530556,19.132778
rs,bogosavac,Bogosavac,00,,44.718889,19.595278
rs,bogosevac,Bogosevac,00,,42.171944,20.878611
rs,bogosevc,Bogosevc,00,,42.171944,20.878611
rs,bogosevce,Bogosevce,00,,42.171944,20.878611
rs,bogosevo,Bogosevo,00,,42.6125,22.076111
rs,bogoslovtrad,Bogoslovtrad,00,,42.501944,22.436111
rs,bogostica,Bogostica,00,,44.328333,19.404444
rs,bogovada,Bogovada,00,,44.328056,20.199444
rs,bogovina,Bogovina,00,1201,43.895,21.940278
rs,bogucani,Bogucani,00,,43.147222,20.103056
rs,bogujevac,Bogujevac,00,,43.043889,21.502222
rs,bogunovac,Bogunovac,00,,42.780833,21.511944
rs,boguti,Boguti,00,,43.278333,20.081667
rs,bogutovac,Bogutovac,00,,43.666667,20.550278
rs,bogutovo,Bogutovo,00,,43.610833,19.9775
rs,bogyan,Bogyán,00,,45.388333,19.107222
rs,bojadici,Bojadici,00,,42.386944,21.871667
rs,bojadzici,Bojadzici,00,,42.386944,21.871667
rs,bojaj,Bojaj,00,,42.646111,20.614722
rs,bojaji,Bojaji,00,,42.646111,20.614722
rs,bojanici,Bojanici,00,,43.432222,20.645278
rs,bojcici,Bojcici,00,,44.350278,19.756389
rs,bojevica,Bojevica,00,,43.103056,20.477778
rs,bojic,Bojic,00,,44.628333,19.64
rs,bojici,Bojici,00,,44.416944,19.379167
rs,bojince,Bojince,00,,43.533611,21.5675
rs,bojinci,Bojinci,00,,43.533611,21.5675
rs,bojin del,Bojin Del,00,,42.606944,21.929167
rs,bojinska mahala,Bojinska Mahala,00,,42.448333,22.440556
rs,bojisina,Bojisina,00,,42.885,22.101389
rs,bojiste,Bojiste,00,,43.7575,21.560556
rs,bojkova mahala,Bojkova Mahala,00,,42.668333,22.226944
rs,bojnik,Bojnik,00,,42.416111,21.916389
rs,bojovici,Bojovici,00,,43.451389,20.198611
rs,bojra,Bojra,00,,43.285,19.6575
rs,bojsina,Bojsina,00,,42.885,22.101389
rs,boka,Boka,00,,45.354444,20.829722
rs,bokajt,Bokajt,00,,42.742778,20.053889
rs,bokare,Bokare,00,,43.673611,20.053889
rs,boksh,Boksh,00,,42.580278,20.5125
rs,bokshi,Bokshi,00,,42.580278,20.5125
rs,bokshiqi,Bokshiqi,00,,42.580278,20.5125
rs,boksic,Boksic,00,,42.580278,20.5125
rs,boldogasszonyfalva,Boldogasszonyfalva,00,,45.403611,19.987222
rs,bolec,Bolec,00,6050,44.724722,20.603333
rs,boleci,Boleci,00,,42.631667,21.468889
rs,bolefci,Bolefci,00,,42.631667,21.468889
rs,boletini,Boletini,00,,42.935556,20.857222
rs,bolevc,Bolevc,00,,42.631667,21.468889
rs,boli gaj,Boli Gaj,00,,44.012778,19.884444
rs,boljani,Boljani,00,,43.323056,19.595278
rs,boljare,Boljare,00,,42.974444,22.162222
rs,boljavina,Boljavina,00,,44.23,19.412222
rs,boljetin,Boljetin,00,,42.935556,20.857222
rs,boljevac,Boljevac,00,3765,43.830278,21.953056
rs,boljevce,Boljevce,00,,42.631667,21.468889
rs,boljevci,Boljevci,00,,44.722222,20.2225
rs,boljev dol,Boljev Dol,00,,43.117778,22.921389
rs,boljkovac,Boljkovac,00,,43.747778,20.664444
rs,boljkovci,Boljkovci,00,,44.143333,20.345833
rs,bolzevac,Bolzevac,00,,44.538056,21.392778
rs,bonatsko visnjicevo,Bonatsko Visnjicevo,00,,45.445278,20.680556
rs,bondulici,Bondulici,00,,42.516389,21.153333
rs,bondzacka mahala,Bondzacka Mahala,00,,42.568611,22.276944
rs,bondzacka mala,Bondzacka Mala,00,,42.568611,22.276944
rs,bondzici,Bondzici,00,,43.48,20.8675
rs,bonjince,Bonjince,00,,43.011944,22.255833
rs,bononia,Bononia,00,,45.212222,19.613333
rs,borac,Borac,00,,43.960556,20.606667
rs,boraja,Boraja,00,,42.056667,20.663056
rs,boraje,Borajë,00,,42.056667,20.663056
rs,borak,Borak,00,,44.536111,20.350556
rs,borana,Borana,00,,42.830556,21.302778
rs,borance,Borance,00,,43.198611,20.916389
rs,boranci,Boranci,00,,43.198611,20.916389
rs,borane,Boranë,00,,42.830556,21.302778
rs,boranja,Boranja,00,,43.945556,19.543333
rs,boranje,Boranje,00,,43.945556,19.543333
rs,boravje,Boravje,00,,43.162778,20.731944
rs,bor,Bor,00,39388,44.078333,22.095278
rs,borca,Borca,00,37844,44.870278,20.458611
rs,borcane,Borcane,00,,43.074444,20.917222
rs,borcanska mala,Borcanska Mala,00,,43.723333,20.990833
rs,borcsa,Borcsa,00,,44.870278,20.458611
rs,bordenic,Bordeniç,00,,42.525278,20.447778
rs,borica,Borica,00,,42.8525,21.132778
rs,boric,Boric,00,,42.583056,20.333889
rs,boricic,Boricic,00,,42.524444,20.540833
rs,boricka mahala,Boricka Mahala,00,,42.403611,22.3575
rs,borika,Borika,00,,43.495556,20.496944
rs,borikovac,Borikovac,00,,43.077222,20.564444
rs,borince,Borince,00,,42.979444,21.570278
rs,borinci,Borinci,00,,42.979444,21.570278
rs,borin do,Borin Do,00,,42.986389,22.212222
rs,borin dol,Borin Dol,00,,42.986389,22.212222
rs,borisice,Borisice,00,,43.104722,19.845
rs,borisici,Borisici,00,,43.104722,19.845
rs,boris novkov,Boris Novkov,00,,42.393889,22.471111
rs,borja,Borja,00,,43.478333,19.918333
rs,borjanice,Borjanice,00,,43.591389,19.53
rs,borkovac,Borkovac,00,,44.548611,19.613056
rs,borkovo,Borkovo,00,,43.493056,20.434167
rs,borlod,Borlod,00,,45.243333,20.582222
rs,boroc,Boroc,00,,45.320278,19.350278
rs,borocz,Borócz,00,,45.320278,19.350278
rs,borostica,Borostica,00,,43.060833,20.105556
rs,borova,Borova,00,,43.162778,20.731944
rs,borovac,Borovac,00,,42.406667,21.747778
rs,borovak,Borovak,00,,43.374722,20.615
rs,borovci,Borovci,00,,42.768056,21.561667
rs,borove,Borove,00,,43.162778,20.731944
rs,borovec,Borovec,00,,42.360278,22.382778
rs,borovice,Borovice,00,,45.183333,21.083333
rs,borovici,Borovici,00,,43.340278,20.503611
rs,borovo barje,Borovo Barje,00,,42.941667,22.719444
rs,borovo,Borovo,00,,42.941667,22.719444
rs,borovski dol,Borovski Dol,00,,42.532778,22.278611
rs,bosacka mahala,Bosacka Mahala,00,,42.443056,22.183611
rs,bosance,Bosance,00,,43.261111,21.516111
rs,bosca,Bosca,00,,42.609444,21.589167
rs,bosce,Bosce,00,,42.609444,21.589167
rs,boshlan,Boshlan,00,,42.913333,21.011667
rs,boshnjaci,Boshnjaci,00,,42.947222,21.826111
rs,bosicane,Bosicane,00,,43.423611,21.190833
rs,bosilegrad,Bosilegrad,00,2713,42.4975,22.468611
rs,bosiljgrad,Bosiljgrad,00,,42.4975,22.468611
rs,bosilov-grad,Bosilov-Grad,00,,42.4975,22.468611
rs,boskovici,Boskovici,00,,43.220278,19.916389
rs,boskovina,Boskovina,00,,43.423056,19.652778
rs,bosljane,Bosljane,00,,42.913333,21.011667
rs,bosnjace,Bosnjace,00,,42.947222,21.826111
rs,bosnjaci,Bosnjaci,00,,42.947222,21.826111
rs,bosnjak,Bosnjak,00,,42.947222,21.826111
rs,bosnjane,Bosnjane,00,,43.663056,21.365278
rs,bosnjani,Bosnjani,00,,43.889167,21.474722
rs,bosnjanovic,Bosnjanovic,00,,44.256944,20.188889
rs,bosnjanovici,Bosnjanovici,00,,44.256944,20.188889
rs,bosorhida,Bosorhida,00,,45.641111,20.414167
rs,bostajnci,Bostajnci,00,,42.353056,21.884722
rs,bostan,Bostan,00,,42.601389,21.426111
rs,bostane,Bostane,00,,42.601389,21.426111
rs,bostani,Bostani,00,,42.601389,21.426111
rs,bostoni,Bostoni,00,,42.601389,21.426111
rs,bosuta,Bosuta,00,,44.233333,20.466667
rs,bosut,Bosut,00,,44.932222,19.3625
rs,botorsko brdo,Botorsko Brdo,00,,43.520278,20.149167
rs,botos,Botos,00,,45.308333,20.636111
rs,botosch,Botosch,00,,45.308333,20.636111
rs,botosh,Botosh,00,,45.308333,20.636111
rs,botschar,Botschar,00,,45.771111,20.282222
rs,bottos,Bottos,00,,45.308333,20.636111
rs,botunja,Botunja,00,,43.426389,21.044722
rs,botunje,Botunje,00,,44.064167,21.018889
rs,boturici,Boturici,00,,43.4575,20.970556
rs,boturovina,Boturovina,00,,43.178889,20.483889
rs,bovan,Bovan,00,,43.541111,21.418056
rs,bozanici,Bozanici,00,,44.5875,20.604167
rs,bozaninova mahala,Bozaninova Mahala,00,,42.565278,22.363611
rs,bozdarevac,Bozdarevac,00,,44.558611,20.381944
rs,bozenjevac,Bozenjevac,00,,42.432222,21.760833
rs,bozesici,Bozesici,00,,43.455278,19.944444
rs,bozetici,Bozetici,00,,43.455278,19.944444
rs,bozevac,Bozevac,00,,44.538056,21.392778
rs,bozevce,Bozevce,00,,42.544722,21.530278
rs,bozhec,Bozhec,00,,42.544722,21.530278
rs,bozheci,Bozheci,00,,42.544722,21.530278
rs,bozhefci,Bozhefci,00,,42.544722,21.530278
rs,bozhevce,Bozhevce,00,,42.801667,20.824444
rs,bozica,Bozica,00,,42.617222,22.4025
rs,bozica mala,Bozica Mala,00,,44.508889,19.763056
rs,bozici,Bozici,00,,43.451944,20.506389
rs,bozidani,Bozidani,00,,42.885,22.101389
rs,bozidarevac,Bozidarevac,00,,44.564444,20.401111
rs,bozilovi,Bozilovi,00,,42.701667,22.258611
rs,bozinjevac,Bozinjevac,00,,42.432222,21.760833
rs,bozinovac,Bozinovac,00,,43.535,22.043333
rs,bozoljin,Bozoljin,00,,43.247778,20.878611
rs,bozovce,Bozovce,00,,42.544722,21.530278
rs,bozovici,Bozovici,00,,42.375833,21.106111
rs,bozov potok,Bozov Potok,00,,43.284444,19.857222
rs,bozurevac,Bozurevac,00,,43.715833,21.045278
rs,bozurnja,Bozurnja,00,,44.216667,20.7
rs,brabonic,Brabonic,00,,42.844167,20.794167
rs,braboniq,Braboniq,00,,42.844167,20.794167
rs,brabonjic,Brabonjic,00,,42.844167,20.794167
rs,bracak,Bracak,00,,43.090278,20.161389
rs,bracevac,Bracevac,00,,44.067222,22.505556
rs,bracin,Bracin,00,,43.746944,21.51
rs,bradanski kraj,Bradanski Kraj,00,,44.598889,20.075556
rs,bradarac,Bradarac,00,,43.617222,21.645833
rs,bradarci,Bradarci,00,,43.617222,21.645833
rs,bradasa,Bradasa,00,,42.940278,21.138056
rs,bradas,Bradas,00,,42.940278,21.138056
rs,bradash,Bradash,00,,42.940278,21.138056
rs,bradashi,Bradashi,00,,42.940278,21.138056
rs,brad,Brad,00,,41.991944,20.706111
rs,brades,Brades,00,,42.940278,21.138056
rs,bradic,Bradic,00,,44.549722,19.339167
rs,bradosavci,Bradosavci,00,,42.11,20.724722
rs,bragjan,Bragjan,00,,43.088611,20.607222
rs,brahovic mahala,Brahovic Mahala,00,,42.768333,20.823333
rs,braina,Braina,00,,42.792778,21.385
rs,braine,Brainë,00,,42.792778,21.385
rs,brainovac,Brainovac,00,,43.777778,21.130556
rs,brajanovici,Brajanovici,00,,43.321667,19.654444
rs,brajenovic,Brajenovic,00,,43.321667,19.654444
rs,brajici,Brajici,00,,44.092778,20.193333
rs,brajina,Brajina,00,,42.792778,21.385
rs,brajinovac,Brajinovac,00,,43.777778,21.130556
rs,brajkovac,Brajkovac,00,,43.248333,19.593333
rs,brajkovici,Brajkovici,00,,44.0275,19.911944
rs,brajsalica,Brajsalica,00,,43.435278,19.629444
rs,brajsor,Brajsor,00,,42.926667,21.488611
rs,bralic,Bralic,00,,42.554167,20.368889
rs,braljina,Braljina,00,,43.653889,21.466389
rs,bramatok,Bramatok,00,,42.474722,20.3075
rs,brancic,Brancic,00,,44.2075,20.261944
rs,brancici,Brancici,00,,43.329722,19.704722
rs,branesca,Branesca,00,,43.806389,19.705
rs,branesci,Branesci,00,,43.772222,19.691944
rs,brangovic,Brangovic,00,,44.2175,19.869444
rs,brangovici,Brangovici,00,,44.2175,19.869444
rs,branicevo,Branicevo,00,,44.705,21.538333
rs,branisevo,Branisevo,00,,43.087778,20.3675
rs,branjevac,Branjevac,00,,44.389167,19.339444
rs,branjevica mahala,Branjevica Mahala,00,,42.4025,22.45
rs,branjovica,Branjovica,00,,42.4025,22.45
rs,brankovci,Brankovci,00,,42.416667,22.5
rs,brankovina,Brankovina,00,,44.362222,19.885556
rs,branosevac,Branosevac,00,,43.461389,19.830278
rs,branovac,Branovac,00,,44.389167,19.339444
rs,braovic,Braovic,00,,42.426111,20.8075
rs,brasalc,Brasalc,00,,42.5,21.404167
rs,brasaljce,Brasaljce,00,,42.5,21.404167
rs,brasansko brdo,Brasansko Brdo,00,,43.405278,19.536944
rs,bras,Bras,00,,43.383611,21.033611
rs,brasina,Brasina,00,,44.465,19.157778
rs,brasma,Brasma,00,,44.444444,19.173056
rs,brastcska mala,Brastcska Mala,00,,43.743889,21.088611
rs,bratacic,Bratacic,00,,44.351389,19.539444
rs,braticevici,Braticevici,00,,44.034167,19.686667
rs,bratici,Bratici,00,,43.501111,21.056667
rs,bratilloc,Bratilloc,00,,42.633889,21.588611
rs,bratilloci,Bratilloci,00,,42.633889,21.588611
rs,bratillofci,Bratillofci,00,,42.633889,21.588611
rs,bratillovce,Bratillovcë,00,,42.633889,21.588611
rs,bratilovce,Bratilovce,00,,42.633889,21.588611
rs,bratinac,Bratinac,00,,44.643056,21.251667
rs,bratisevac,Bratisevac,00,,43.1,22.370278
rs,bratiste,Bratiste,00,,43.1,22.370278
rs,bratljevo,Bratljevo,00,,43.465833,20.194722
rs,bratmilovce,Bratmilovce,00,,43.006111,21.987778
rs,bratogin,Bratogin,00,,42.425,20.579722
rs,bratoselce,Bratoselce,00,,42.343056,21.749167
rs,bratotin,Bratotin,00,,42.425,20.579722
rs,bratujevacke pionice,Bratujevacke Pionice,00,,44.201944,22.514444
rs,bratuljevici,Bratuljevici,00,,43.504444,20.145278
rs,brazda,Brazda,00,,44.375278,19.748611
rs,brazhanik,Brazhanik,00,,42.643611,20.334167
rs,brazilija,Brazilija,00,,45.743611,19.808889
rs,brda,Brda,00,,44.489722,19.678333
rs,brdanci,Brdanci,00,,43.364722,21.0975
rs,brdane,Brdane,00,,43.088611,20.607222
rs,brdani,Brdani,00,,43.088611,20.607222
rs,brdanska mala,Brdanska Mala,00,,44.589444,19.409722
rs,brdarica,Brdarica,00,,44.553333,19.770556
rs,brdarice,Brdarice,00,,44.553333,19.770556
rs,brdasan,Brdasan,00,,42.404167,20.504722
rs,brdo,Brdo,00,,43.344722,19.634444
rs,brdosan,Brdosan,00,,42.404167,20.504722
rs,brdosavce,Brdosavce,00,,42.11,20.724722
rs,brebevnica,Brebevnica,00,,43.048056,22.892222
rs,breca,Breca,00,,43.071944,21.076667
rs,brece,Brecë,00,,42.629444,21.092222
rs,breganik,Breganik,00,,42.643611,20.334167
rs,breg,Breg,00,,42.618333,20.488056
rs,breg-drim,Breg-Drim,00,,42.289167,20.636944
rs,breg i zi,Breg i Zi,00,,42.475,21.055833
rs,breg kuciste,Breg Kuciste,00,,42.6975,20.0825
rs,breg mahala,Breg Mahala,00,,42.563611,20.758333
rs,bregovina,Bregovina,00,,43.081944,21.568056
rs,bregu i hodes,Bregu i Hodes,00,,42.404167,20.268889
rs,bregu i madh,Bregu i Madh,00,,42.931667,20.678056
rs,brejanovce,Brejanovce,00,,43.103333,21.9425
rs,brekinja,Brekinja,00,,43.047222,20.731667
rs,brekoc,Brekoc,00,,42.358611,20.405278
rs,brekovac,Brekovac,00,,42.358611,20.405278
rs,brekove,Brekovë,00,,42.358611,20.405278
rs,brekovo,Brekovo,00,,43.648056,20.006111
rs,bremova odaja,Bremova Odaja,00,,45.387222,20.579167
rs,brenesevac,Brenesevac,00,,43.461389,19.830278
rs,brenica,Brenica,00,,43.3825,21.9275
rs,brenjaca,Brenjaca,00,,42.366389,20.613056
rs,bresaic,Bresaic,00,,42.5,21.404167
rs,bresalci,Bresalci,00,,42.5,21.404167
rs,bresaljce,Bresaljce,00,,42.5,21.404167
rs,bresance,Bresance,00,,42.410833,20.778889
rs,bresance mehana,Bresance Mehana,00,,42.410833,20.778889
rs,bresane,Bresanë,00,,42.11,20.724722
rs,bresene,Bresenë,00,,42.410833,20.778889
rs,bresja,Bresja,00,,42.629444,21.092222
rs,bresje,Bresje,00,,42.629444,21.092222
rs,breska,Breska,00,,44.674722,20.158889
rs,bresnica,Bresnica,00,,43.874167,20.590556
rs,bresnicic,Bresnicic,00,,43.250278,21.446667
rs,bresnicici,Bresnicici,00,,43.250278,21.446667
rs,bresnik,Bresnik,00,,43.154167,21.419167
rs,bresno polje,Bresno Polje,00,,43.579167,21.168889
rs,brestac,Brestac,00,,44.861111,19.902778
rs,brestavac,Brestavac,00,,42.359444,20.664167
rs,brest,Brest,00,,43.279444,21.729722
rs,brestofc,Brestofc,00,,42.359444,20.664167
rs,brestovac,Brestovac,00,,44.04,22.083056
rs,brestovc,Brestovc,00,,42.359444,20.664167
rs,brestov dol,Brestov Dol,00,,43.041667,22.309444
rs,brestovi,Brestovi,00,,44.570278,20.643611
rs,brestovik,Brestovik,00,,42.701111,20.303611
rs,brestoviku,Brestoviku,00,,42.701111,20.303611
rs,brestovo,Brestovo,00,,42.708889,21.985833
rs,breza,Breza,00,,42.123333,20.6325
rs,brezaj,Brezaj,00,,42.861944,21.351389
rs,brezak,Brezak,00,,43.786389,19.727778
rs,brezane,Brezane,00,,44.649444,21.076389
rs,brezani,Brezani,00,,43.324167,21.339722
rs,brezanicka ulica,Brezanicka Ulica,00,,42.641667,20.312222
rs,brezanik,Brezanik,00,,42.643611,20.334167
rs,brezde,Brezde,00,,43.091111,20.539722
rs,breze,Brezë,00,,42.123333,20.6325
rs,brezenik,Brezenik,00,,42.643611,20.334167
rs,brezhenik,Brezhenik,00,,42.643611,20.334167
rs,brezjak,Brezjak,00,,44.509444,19.341944
rs,brezna,Brezna,00,,42.123333,20.6325
rs,brezne,Breznë,00,,42.123333,20.6325
rs,breznica,Breznica,00,,42.536667,21.715
rs,breznice,Breznicë,00,,42.776667,21.083333
rs,brezova,Brezova,00,,43.4925,20.499722
rs,brezovac,Brezovac,00,,43.681667,19.526944
rs,brezov breg,Brezov Breg,00,,43.491389,19.236111
rs,brezovcani,Brezovcani,00,,42.312222,21.749444
rs,brezovec,Brezovec,00,,42.426944,22.421111
rs,brezovica,Brezovica,00,,42.221944,21.004722
rs,brezovice,Brezovicë,00,,42.221944,21.004722
rs,brgjani,Brgjani,00,,43.969167,20.4175
rs,brgule,Brgule,00,,44.528889,20.189444
rs,brgulice,Brgulice,00,,44.664167,20.119722
rs,bricevje,Bricevje,00,,42.82,22.13
rs,bricevlje,Bricevlje,00,,42.82,22.13
rs,bricko,Bricko,00,,42.406389,22.294444
rs,brijezde,Brijezde,00,,44.175556,20.0475
rs,brisic,Brisic,00,,42.459722,21.693889
rs,brizici,Brizici,00,,43.517778,19.361667
rs,brkat,Brkat,00,,43.477222,19.518333
rs,brkici,Brkici,00,,44.558333,19.301667
rs,brkoli mahala,Brkoli Mahala,00,,42.51,21.39
rs,brkovici,Brkovici,00,,43.538333,19.838333
rs,brloga,Brloga,00,,44.550556,22.574167
rs,brlog,Brlog,00,,43.201389,22.806944
rs,brnas,Brnas,00,,43.471389,19.601667
rs,brnes,Brnes,00,,42.397222,21.200833
rs,brnjaca,Brnjaca,00,,42.366389,20.613056
rs,brnjac,Brnjac,00,,44.547778,19.3675
rs,brnjak,Brnjak,00,,42.929444,20.565833
rs,brnjare,Brnjare,00,,42.397222,21.917222
rs,brnjas,Brnjas,00,,43.471389,19.601667
rs,brnjica,Brnjica,00,,43.285833,20.194722
rs,brocanac,Brocanac,00,,42.5775,21.427778
rs,brocare mahala,Brocare Mahala,00,,42.581944,22.404722
rs,broc,Broç,00,,42.691667,20.674444
rs,brocna,Brocna,00,,42.691667,20.674444
rs,brocnja,Brocnja,00,,42.691667,20.674444
rs,brodanovici,Brodanovici,00,,42.918333,20.5975
rs,brodarevo,Brodarevo,00,,43.220556,19.718611
rs,brod,Brod,00,,41.991944,20.706111
rs,brodi,Brodi,00,,41.991944,20.706111
rs,brodica,Brodica,00,,44.488333,21.818889
rs,brodosane,Brodosanë,00,,42.11,20.724722
rs,brodosavce,Brodosavce,00,,42.11,20.724722
rs,brod-prizrenski,Brod-Prizrenski,00,,41.991944,20.706111
rs,brojaci,Brojaci,00,,43.288889,20.560833
rs,brolaj,Brolaj,00,,42.554167,20.368889
rs,brolic,Brolic,00,,42.554167,20.368889
rs,broliq,Broliq,00,,42.554167,20.368889
rs,broliqi,Broliqi,00,,42.554167,20.368889
rs,bronjska mahala,Bronjska Mahala,00,,43.224167,20.167778
rs,brovic,Brovic,00,,44.534444,20.138056
rs,brovina,Brovina,00,,42.429722,20.275278
rs,brovine,Brovinë,00,,42.429722,20.275278
rs,brstica,Brstica,00,,44.391667,19.335556
rs,brus,Brus,00,,42.585556,21.325278
rs,brus,Brus,02,4651,43.383611,21.033611
rs,brusnica,Brusnica,00,,44.016667,20.433333
rs,brusnik,Brusnik,00,,42.783333,20.920278
rs,brut,Brut,00,,42.129444,20.700278
rs,brvenica,Brvenica,00,,43.356389,20.604167
rs,brvenik,Brvenik,00,,42.811111,21.426389
rs,brvine,Brvine,00,,43.203611,19.677778
rs,brza,Brza,00,,42.856111,21.881389
rs,brzaci,Brzaci,00,,42.533889,22.323889
rs,brzan,Brzan,00,,44.115278,21.133333
rs,brzance,Brzance,00,,43.058611,20.938611
rs,brza palanka,Brza Palanka,00,1054,44.466667,22.45
rs,brzece,Brzece,00,,43.301667,20.886944
rs,brzi brod,Brzi Brod,00,4656,43.310278,21.966667
rs,brzina mahala,Brzina Mahala,00,,42.603333,22.434722
rs,brzohode,Brzohode,00,,44.366944,21.276944
rs,buar,Buar,00,,43.882222,19.820556
rs,bubajec,Bubajec,00,,42.55,20.721944
rs,buban,Buban,00,,43.397222,20.428333
rs,bubanj,Bubanj,00,,43.050833,21.449444
rs,bubanje,Bubanje,00,,43.215,19.9175
rs,bubanj potok,Bubanj Potok,00,,44.734444,20.543333
rs,bubavec,Bubavec,00,,42.55,20.721944
rs,bube,Bubë,00,,42.523611,20.652222
rs,bubel,Bubël,00,,42.523611,20.652222
rs,bubetici,Bubetici,00,,43.578611,19.274167
rs,bubevci,Bubevci,00,,42.519167,22.345556
rs,buble,Buble,00,,42.523611,20.652222
rs,bubli,Bubli,00,,42.523611,20.652222
rs,bublica,Bublica,00,,42.403889,21.13
rs,bublje,Bublje,00,,42.523611,20.652222
rs,bubnjava,Bubnjava,00,,44.200833,19.395833
rs,bubusinac,Bubusinac,00,,44.660556,21.234167
rs,buca,Buca,00,,42.111944,20.634444
rs,bucalevo,Bucalevo,00,,42.463333,22.456389
rs,bucan,Buçan,00,,42.558056,20.452778
rs,bucane,Bucane,00,,42.558056,20.452778
rs,bucani,Bucani,00,,42.558056,20.452778
rs,bucanji,Bucanji,00,,44.263611,22.162778
rs,bucar,Bucar,00,,44.070556,21.555833
rs,buce,Buce,00,,42.111944,20.634444
rs,buceljevo,Buceljevo,00,,42.463333,22.456389
rs,buchenau,Buchenau,00,,45.303056,19.261667
rs,buci,Buci,00,,43.478889,21.350278
rs,bucic,Bucic,00,,43.2325,21.696389
rs,bucici,Bucici,00,,43.351389,21.003333
rs,bucija,Bucija,00,,44.533333,19.586944
rs,bucince,Bucince,00,,43.163611,21.585833
rs,bucinci,Bucinci,00,,43.163611,21.585833
rs,bucje,Bucje,00,,43.182222,19.734444
rs,buc mahala,Buc Mahala,00,,42.357778,20.926111
rs,bucum,Bucum,00,,43.4475,22.251111
rs,bucure,Bucure,00,,44.230278,19.657778
rs,bucursko,Bucursko,00,,44.230278,19.657778
rs,budakovac,Budakovac,00,,43.123056,21.457222
rs,budakove,Budakovë,00,,42.355,20.925
rs,budakovo,Budakovo,00,,42.355,20.925
rs,budanovci,Budanovci,00,,44.8925,19.862222
rs,budenica,Budenica,00,,42.656389,21.516667
rs,budevo,Budevo,00,,43.145556,20.050556
rs,budice,Budice,00,,43.228889,20.460556
rs,budilovina,Budilovina,00,,43.436944,20.990833
rs,budimlija,Budimlija,00,,44.503611,19.219167
rs,budisallc,Budisallc,00,,42.666389,20.495556
rs,budisallci,Budisallci,00,,42.666389,20.495556
rs,budisava,Budisava,00,,45.281389,19.993889
rs,budisavci,Budisavci,00,,42.666389,20.495556
rs,budisic,Budisic,00,,44.338611,19.146389
rs,budjanovci,Budjanovci,00,,44.8925,19.862222
rs,budjeve,Budjevë,00,,43.145556,20.050556
rs,budozelja,Budozelja,00,,43.533333,20.29
rs,budriga e eperme,Budriga e Epërme,00,,42.375,21.419167
rs,budriga e poshteme,Budriga e Poshtëme,00,,42.409722,21.455
rs,budriga e siperme,Budriga e Sipërme,00,,42.409722,21.455
rs,bugarci,Bugarci,00,,43.362222,21.052778
rs,bugare,Bugare,00,,43.228056,21.138333
rs,bugarski dub,Bugarski Dub,00,,42.763889,20.590833
rs,bujacic,Bujacic,00,,44.2575,19.913056
rs,bujaki,Bujaki,00,,42.666944,21.738333
rs,bujanc,Bujanc,00,,42.483056,21.0775
rs,bujance,Bujance,00,,42.483056,21.0775
rs,bujanovac,Bujanovac,02,12109,42.459167,21.766667
rs,bujanovc,Bujanovc,00,,42.459167,21.766667
rs,bujanovce,Bujanovce,00,,42.459167,21.766667
rs,bujanovci,Bujanovci,00,,42.459167,21.766667
rs,bujca,Bujca,00,,43.188889,20.307778
rs,bujic,Bujic,00,,42.336944,21.603611
rs,bujimir,Bujimir,00,,43.4825,21.754167
rs,bujiq,Bujiq,00,,42.336944,21.603611
rs,bujkovac,Bujkovac,00,,42.561944,22.016389
rs,bujkovice,Bujkovice,00,,42.995833,20.315278
rs,bujkovici,Bujkovici,00,,42.995833,20.315278
rs,bujmir,Bujmir,00,,43.4825,21.754167
rs,bujosi,Bujosi,00,,43.693611,20.185556
rs,bujub mahala,Bujub Mahala,00,,42.579167,20.826389
rs,bukarci,Bukarci,00,,42.654444,21.927778
rs,bukare,Bukare,00,,43.381389,20.505278
rs,bukarevac,Bukarevac,00,,42.334722,21.709444
rs,bukavica,Bukavica,00,,42.5775,21.265556
rs,bukin,Bukin,00,,45.303056,19.261667
rs,bukoloram,Bukoloram,00,,43.1625,21.475278
rs,bukor,Bukor,00,,44.5,19.591389
rs,bukorevac,Bukorevac,00,,42.334722,21.709444
rs,bukorovac,Bukorovac,00,,42.334722,21.709444
rs,bukorovce,Bukorovce,00,,42.334722,21.709444
rs,bukos,Bukos,00,,42.338611,20.890833
rs,bukosh,Bukosh,00,,42.338611,20.890833
rs,bukovac,Bukovac,00,,42.360556,21.648611
rs,bukovac mahala,Bukovac Mahala,00,,42.298056,21.526667
rs,bukova glava,Bukova Glava,00,,42.845833,21.840556
rs,bukova padina,Bukova Padina,00,,42.387222,22.238611
rs,bukova ravan,Bukova Ravan,00,,43.984722,19.760556
rs,bukovca,Bukovca,00,,44.202778,22.600833
rs,bukovc,Bukovc,00,,42.360556,21.648611
rs,bukovce,Bukovce,00,,44.202778,22.600833
rs,bukovci,Bukovci,00,,43.381389,21.130833
rs,bukovica,Bukovica,00,,42.5775,21.265556
rs,bukovic,Bukovic,00,,43.434444,19.401389
rs,bukovik,Bukovik,00,,42.454444,21.561389
rs,bukoviku,Bukoviku,00,,42.454444,21.561389
rs,bukovska,Bukovska,00,,44.416944,21.672222
rs,bukovsko,Bukovsko,00,,44.416944,21.672222
rs,bukres,Bukres,00,,43.125833,21.443056
rs,bukurevac,Bukurevac,00,,42.334722,21.709444
rs,bukurovac,Bukurovac,00,,43.249167,22.349167
rs,bukvica mehana,Bukvica Mehana,00,,43.889722,19.720278
rs,bukvicka mala,Bukvicka Mala,00,,44.636944,19.378889
rs,bulatovac,Bulatovac,00,,43.267222,21.510833
rs,bulatovici,Bulatovici,00,,43.390833,19.843056
rs,bulici,Bulici,00,,43.436111,19.3725
rs,bulije,Bulije,00,,43.703056,20.302778
rs,bulimacevska mahala,Bulimacevska Mahala,00,,42.436111,22.010833
rs,bulinovac,Bulinovac,00,,43.603889,22.182222
rs,buljan,Buljan,00,,43.899167,21.534722
rs,buljane,Buljane,00,,43.899167,21.534722
rs,buljesavci,Buljesavci,00,,42.436944,21.924444
rs,buljesovce,Buljesovce,00,,42.436944,21.924444
rs,buljkes,Buljkes,00,,45.362222,19.531667
rs,bulkes,Bulkes,00,,45.362222,19.531667
rs,bulkesz,Bulkesz,00,,45.362222,19.531667
rs,bulkeszi,Bulkeszi,00,,45.362222,19.531667
rs,bulovic mahala,Bulovic Mahala,00,,42.683333,21.396111
rs,bulutanska mahala,Bulutanska Mahala,00,,42.389444,21.939167
rs,bumbarevo brdo,Bumbarevo Brdo,00,,43.909722,20.626389
rs,bumbarevo,Bumbarevo,00,,43.909722,20.626389
rs,bumbarska mahala,Bumbarska Mahala,00,,42.530556,22.493889
rs,bumbule,Bumbule,00,,42.485556,22.112222
rs,bumburek,Bumburek,00,,43.253611,21.5525
rs,bunar,Bunar,00,,43.409167,20.470833
rs,bunetic,Bunetic,00,,44.452778,21.399167
rs,bungaja,Bungaja,00,,42.595278,20.354722
rs,bunisevce,Bunisevce,00,,42.540278,21.878056
rs,bunjak,Bunjak,00,,42.650278,21.683056
rs,bunjaki,Bunjaki,00,,42.646944,21.685556
rs,bunjaku,Bunjaku,00,,42.650278,21.683056
rs,bunjcevi,Bunjcevi,00,,42.478333,22.015556
rs,bunjuki,Bunjuki,00,,42.646944,21.685556
rs,bunusa,Bunusa,00,,42.891389,21.870556
rs,bunusevce,Bunusevce,00,,42.540278,21.878056
rs,bunuski ciflik,Bunuski Ciflik,00,,42.883611,21.880833
rs,bunuski cifluk,Bunuski Cifluk,00,,42.883611,21.880833
rs,buqe,Buqe,00,,42.111944,20.634444
rs,burada,Burada,00,,43.525,19.82
rs,burdimo,Burdimo,00,,43.413056,22.234167
rs,burgici,Burgici,00,,43.285278,21.113333
rs,burgionji,Burgionji,00,,44.526667,21.728056
rs,burim,Burim,00,,42.780833,20.4875
rs,burimi,Burimi,00,,42.780833,20.4875
rs,burimi i poshtem,Burimi i Poshtëm,00,,42.773333,20.498889
rs,burince,Burince,00,,42.396389,21.550556
rs,burinica,Burinica,00,,42.396389,21.550556
rs,burinice-a,Burinice-a,00,,42.396389,21.550556
rs,burinice,Burinicë,00,,42.396389,21.550556
rs,burlate,Burlate,00,,42.970556,20.597778
rs,burmazi,Burmazi,00,,43.521944,20.821944
rs,burnik,Burnik,00,,42.302222,21.108056
rs,burnut,Burnut,00,,42.729167,20.301111
rs,burovac,Burovac,00,,44.272778,21.357778
rs,burovo,Burovo,00,,44.401111,20.287778
rs,burremadh,Burrëmadh,00,,42.573611,20.336667
rs,burremadhi,Burrëmadhi,00,,42.573611,20.336667
rs,burrnik,Burrnik,00,,42.302222,21.108056
rs,busal mala,Busal Mala,00,,42.163333,21.270556
rs,busara,Busara,00,,43.419444,19.388889
rs,busenje,Busenje,00,,45.436111,20.821944
rs,bushale,Bushalë,00,,42.1625,21.263611
rs,bushat,Bushat,00,,42.578889,20.903889
rs,bushati,Bushati,00,,42.578889,20.903889
rs,bushinca,Bushinca,00,,42.625,21.506944
rs,bushince,Bushincë,00,,42.625,21.506944
rs,bushtranje,Bushtranje,00,,42.330556,21.755
rs,busi,Busi,00,,42.641111,21.309722
rs,busici,Busici,00,,43.317222,20.4425
rs,busilovac,Busilovac,00,,43.797222,21.481667
rs,busince,Busince,00,,42.625,21.506944
rs,businjce,Businjce,00,,42.625,21.506944
rs,businje,Businje,00,,42.641111,21.309722
rs,busnica,Busnica,00,,44.301389,19.190278
rs,busovata,Busovata,00,,42.566667,21.529722
rs,busovate,Busovatë,00,,42.566667,21.529722
rs,busovato,Busovato,00,,42.566667,21.529722
rs,bustranje,Bustranje,00,,42.330556,21.755
rs,busur,Busur,00,,44.225,21.385278
rs,butakove,Butakovë,00,,42.355,20.925
rs,butina,Butina,00,,42.713611,20.431111
rs,butine,Butinë,00,,42.713611,20.431111
rs,butisafc,Butisafc,00,,42.666389,20.495556
rs,butisals,Butisals,00,,42.666389,20.495556
rs,butisalsi,Butisalsi,00,,42.666389,20.495556
rs,butkovo,Butkovo,00,,43.52,20.186944
rs,butovac,Butovac,00,,42.660833,21.250833
rs,butrike e poshteme,Butrikë e Poshtëme,00,,42.409722,21.455
rs,buvce,Buvce,00,,42.834444,21.69
rs,buvci,Buvci,00,,42.834444,21.69
rs,buzalja,Buzalja,00,,42.339444,20.924167
rs,buzan,Buzan,00,,42.339444,20.924167
rs,buzec,Buzec,00,,42.111111,20.703333
rs,buzedrin,Buzëdrin,00,,42.690833,20.465833
rs,buzedrini,Buzëdrini,00,,42.690833,20.465833
rs,buzellap,Buzëllap,00,,42.966944,21.163333
rs,buzellapi,Buzëllapi,00,,42.966944,21.163333
rs,buzemorave-a ose margeshi,Buzemorave-a ose Margeshi,00,,42.425556,21.525278
rs,buzes,Buzës,00,,42.111111,20.703333
rs,buzovik,Buzovik,00,,42.285556,21.390556
rs,byjac,Byjaç,00,,42.336944,21.603611
rs,bzenica,Bzenica,00,,43.488611,20.891389
rs,bzenice,Bzenice,00,,43.488611,20.891389
rs,bzovik,Bzovik,00,,43.425833,20.448056
rs,cabaj,Çabaj,00,,42.596111,20.714444
rs,caber,Çabër,00,,42.906667,20.7725
rs,cabic,Cabic,00,,42.596111,20.714444
rs,cabiqi,Çabiqi,00,,42.596111,20.714444
rs,cabra,Cabra,00,,42.906667,20.7725
rs,cacak,Cacak,02,75062,43.891389,20.349722
rs,cadinje,Cadinje,00,,43.362778,19.611944
rs,cadrak,Çadrak,00,,42.403333,20.926667
rs,cafka mahala,Cafka Mahala,00,,42.268333,21.268056
rs,caganje,Caganje,00,,43.937222,20.226667
rs,caglavica,Caglavica,00,,42.62,21.146944
rs,cagljevo,Cagljevo,00,,44.394167,21.048056
rs,cagllavice,Çagllavicë,00,,42.62,21.146944
rs,caglovica,Caglovica,00,,42.62,21.146944
rs,cagrovac,Cagrovac,00,,43.205833,22.070556
rs,cairi,Cairi,00,,43.607222,21.003333
rs,cairovici,Cairovici,00,,43.978056,20.591944
rs,cajdrak,Cajdrak,00,,42.403333,20.926667
rs,cajetina,Cajetina,00,3309,43.75,19.716667
rs,cajici,Cajici,00,,43.343333,20.573333
rs,cajir,Cajir,00,,43.835278,21.384167
rs,cajiri,Cajiri,00,,43.607222,21.003333
rs,cajtina,Cajtina,00,,43.271667,20.759167
rs,caka mahala,Caka Mahala,00,,42.261667,21.174167
rs,cakanovac,Cakanovac,00,,42.275,21.680833
rs,cakina bara,Cakina Bara,00,,42.555556,22.160278
rs,cakina mahala,Cakina Mahala,00,,42.654167,22.346111
rs,cakinci mahala,Cakinci Mahala,00,,42.650278,22.429167
rs,cakutic,Cakutic,00,,42.768333,20.3625
rs,calak mahala,Calak Mahala,00,,42.518056,20.526944
rs,caldovici,Caldovici,00,,43.702222,19.880833
rs,calja,Calja,00,,43.526944,20.421944
rs,callopek,Çallopek,00,,42.576389,20.440556
rs,calma,Calma,00,,45.078889,19.506389
rs,calopek,Calopek,00,,42.505833,21.180833
rs,camici,Camici,00,,43.9275,19.761667
rs,camurlija,Camurlija,00,,43.366667,21.847222
rs,canoga,Canoga,00,,43.010556,21.1025
rs,cantavir,Cantavir,00,7039,45.920278,19.763056
rs,capar,Capar,00,,42.285556,20.768333
rs,caparc,Caparc,00,,42.285556,20.768333
rs,caparce,Caparce,00,,42.285556,20.768333
rs,caparci,Caparci,00,,42.285556,20.768333
rs,capari,Capari,00,,42.285556,20.768333
rs,caparic,Caparic,00,,44.168611,19.460833
rs,caplinci,Caplinci,00,,43.244167,21.821944
rs,capljak,Capljak,00,,43.703333,20.528056
rs,capljinac,Capljinac,00,,43.248611,21.842778
rs,caprac,Caprac,00,,42.285556,20.768333
rs,caprici,Caprici,00,,43.055278,21.430278
rs,captalanfalau,Captalanfalau,00,,45.436111,20.821944
rs,carabreg i ulet,Carabreg i Ulët,00,,42.529722,20.298056
rs,carak mahala,Carak Mahala,00,,42.651389,20.950833
rs,carakovce,Carakovce,00,,42.564444,21.637222
rs,caraleve,Caralevë,00,,42.4525,20.968056
rs,carallug,Carallug,00,,42.720556,20.401111
rs,caralluka,Caralluka,00,,42.720556,20.401111
rs,caralug,Caralug,00,,42.512778,20.769167
rs,carapici,Carapici,00,,43.948056,20.108889
rs,caravci,Caravci,00,,42.271667,21.136944
rs,caravik,Çaravik,00,,42.587222,20.739167
rs,caraviku,Caraviku,00,,42.587222,20.739167
rs,caravrane,Caravranë,00,,42.4775,20.688611
rs,car,Car,00,,42.598056,21.7525
rs,carci,Carci,00,,42.479444,22.029722
rs,cardak,Cardak,00,,42.286389,21.224167
rs,cardak mahala,Cardak Mahala,00,,42.280833,21.223333
rs,cardinci,Cardinci,00,,42.419722,22.208056
rs,cardinici,Cardinici,00,,42.419722,22.208056
rs,carefci,Carefci,00,,42.609167,21.483611
rs,caret,Caret,00,,42.841389,21.084722
rs,carevac,Carevac,00,,44.679167,21.493333
rs,carevajka,Carevajka,00,,42.339167,21.569167
rs,carevc,Carevc,00,,42.609167,21.483611
rs,carevce,Carevce,00,,42.609167,21.483611
rs,carevci,Carevci,00,,42.271667,21.136944
rs,carev del,Carev Del,00,,43.011667,22.565556
rs,caribrod,Caribrod,00,,43.014167,22.775556
rs,carica,Carica,00,,42.639167,22.446944
rs,caric,Caric,00,,44.558611,19.644167
rs,caricina,Caricina,00,,43.236111,19.872778
rs,caric mala,Caric Mala,00,,44.629444,19.721111
rs,carina,Carina,00,,43.882222,19.841944
rs,carkoc,Çarkoc,00,,42.564444,21.637222
rs,carkos-mahala,Carkos-Mahala,00,,42.348889,21.229444
rs,carkovica,Carkovica,00,,42.532222,22.356389
rs,carkovici,Carkovici,00,,44.09,19.688056
rs,car lazar,Car Lazar,00,,42.710556,21.103056
rs,car-mahala,Car-Mahala,00,,42.271667,21.136944
rs,car mahala,Car Mahala,00,,42.423056,20.931944
rs,caroliska mahala,Caroliska Mahala,00,,42.678333,21.686111
rs,carovina,Carovina,00,,43.135833,20.320833
rs,carrabreg i eperm,Carrabreg i Epërm,00,,42.526944,20.292222
rs,carrabreg i poshtem,Carrabreg i Poshtem,00,,42.529722,20.298056
rs,carrabregu i eperm,Carrabregu i Epërm,00,,42.526944,20.292222
rs,carrabregu i poshtem,Carrabregu i Poshtëm,00,,42.529722,20.298056
rs,carraleve,Carralevë,00,,42.4525,20.968056
rs,carraluke,Carralukë,00,,42.512778,20.769167
rs,carravrr,Carravrr,00,,42.678333,20.277778
rs,casic,Casic,00,,43.05,20.433333
rs,casic-dolac,Casic-Dolac,00,,43.05,20.433333
rs,causevic,Causevic,00,,43.361389,19.578611
rs,causevici,Causevici,00,,43.361389,19.578611
rs,causevska mahala,Causevska Mahala,00,,42.573333,22.166944
rs,cavadarci,Cavadarci,00,,42.280833,21.744444
rs,cavina,Cavina,00,,44.248056,19.649722
rs,cebapova mahala,Cebapova Mahala,00,,42.773333,22.382778
rs,cebapovi,Cebapovi,00,,42.773333,22.382778
rs,cebici,Cebici,00,,44.090833,19.742222
rs,cebrisonj,Cebrisonj,00,,44.535556,21.700278
rs,ceceli,Ceceli,00,,42.847778,21.053889
rs,cecelija,Cecelija,00,,42.847778,21.053889
rs,cecevo,Cecevo,00,,42.918889,20.606667
rs,cecina,Cecina,00,,43.198056,21.87
rs,cedovo,Cedovo,00,,43.303333,20.000278
rs,cekarci,Cekarci,00,,42.639167,21.958333
rs,cekljar mahala,Cekljar Mahala,00,,42.2625,21.1425
rs,cekmin,Cekmin,00,,43.1075,21.899444
rs,celaj,Celaj,00,,42.575833,20.3125
rs,celarevo,Celarevo,02,5554,45.269444,19.525278
rs,celavci,Celavci,00,,44.291667,19.360833
rs,celepi,Celepi,00,,43.458611,20.652222
rs,celica,Celica,00,,43.475833,19.650833
rs,celice,Celice,00,,43.475833,19.650833
rs,celija,Celija,00,,43.475278,19.641111
rs,celije,Celije,00,,43.198611,22.101667
rs,celik,Celik,00,,42.304167,21.5225
rs,celiku,Çeliku,00,,42.304167,21.5225
rs,celina,Celina,00,,42.337778,20.629722
rs,celine,Celinë,00,,42.337778,20.629722
rs,celiste,Celiste,00,,42.731389,22.16
rs,celopek,Celopek,00,,42.505833,21.180833
rs,celovci,Celovci,00,,44.291667,19.360833
rs,cemerikovci,Cemerikovci,00,,43.616944,19.716944
rs,cendici,Cendici,00,,43.760833,20.368056
rs,cenej,Cenej,00,,45.366944,19.797778
rs,cengovska mahala,Cengovska Mahala,00,,42.7125,22.120278
rs,cenovac,Cenovac,00,,42.965,21.844444
rs,centa,Centa,00,,45.108333,20.387778
rs,cepalije,Cepalije,00,,43.593889,19.272222
rs,cepelje,Cepelje,00,,43.065278,20.582222
rs,ceperkovici,Ceperkovici,00,,43.560278,20.906389
rs,cepilova mahala,Cepilova Mahala,00,,42.624167,22.350278
rs,cepovo,Cepovo,00,,43.585833,20.036944
rs,cepure,Cepure,00,,43.827222,21.356667
rs,ceqove,Çeqovë,00,,42.918889,20.606667
rs,ceraje,Cerajë,00,,43.026667,20.853889
rs,cerak,Cerak,00,,42.499444,22.0975
rs,ceraleve,Cëralevë,00,,42.4525,20.968056
rs,cerana,Cerana,00,,43.189444,21.034722
rs,ceranici,Ceranici,00,,44.057222,19.654722
rs,ceranja,Ceranja,00,,43.026667,20.853889
rs,ceranje,Ceranje,00,,43.026667,20.853889
rs,ceranovica,Ceranovica,00,,42.583056,21.457222
rs,ceranska mala,Ceranska Mala,00,,44.571111,19.523056
rs,cerat,Cerat,00,,42.34,20.266944
rs,cer,Cer,00,,42.262778,21.711111
rs,ceremosnja,Ceremosnja,00,,44.403889,21.650833
rs,ceret,Ceret,00,,42.34,20.266944
rs,cerevajka,Cerevajka,00,,42.339167,21.569167
rs,cerevic,Cerevic,00,,45.219444,19.665278
rs,cerici,Cerici,00,,42.482222,20.934167
rs,cerim,Cerim,00,,42.405833,20.435833
rs,cerjani,Cerjani,00,,43.8175,20.653611
rs,cerjanska mala,Cerjanska Mala,00,,43.501667,21.462222
rs,cerje,Cerje,00,,43.429167,21.910833
rs,cerkeska mala,Cerkeska Mala,00,,43.248333,21.599444
rs,cerkez-kej,Cerkez-kej,00,,42.741667,21.034444
rs,cerkez sadovina,Cerkez Sadovina,00,,42.343333,21.28
rs,cerkolez,Cërkolez,00,,42.813056,20.633333
rs,cerkolezi,Cërkolezi,00,,42.813056,20.633333
rs,cerkvena vodic,Cërkvena Vodic,00,,42.673333,21.053889
rs,cermian,Çermian,00,,42.4725,20.476389
rs,cermiani,Çermiani,00,,42.4725,20.476389
rs,cermjan,Cermjan,00,,42.4725,20.476389
rs,cernica,Cernica,00,,42.425556,21.419722
rs,cernice,Cernicë,00,,42.425556,21.419722
rs,cernille,Cernillë,00,,42.4575,21.199722
rs,cerovaca,Cerovaca,00,,43.485833,19.322222
rs,cerovac,Cerovac,00,,44.675278,19.743611
rs,cerova,Cerova,00,,43.305833,22.499722
rs,cerovak,Cerovak,00,,43.635,20.705278
rs,ceroverha,Cerovërha,00,,42.678333,20.277778
rs,ceroverhe,Cerovërhë,00,,42.678333,20.277778
rs,ceroverhi,Cërovërhi,00,,42.678333,20.277778
rs,cerovica,Cerovica,00,,43.610278,22.058333
rs,cerovici,Cerovici,00,,42.358056,21.875
rs,cerovih,Cerovih,00,,42.587222,20.739167
rs,cerovik,Cerovik,00,,42.587222,20.739167
rs,cerovo,Cerovo,00,,43.057222,21.201111
rs,cerrabreg,Cërrabreg,00,,42.529722,20.298056
rs,cerratove,Cerratovë,00,,43.205833,20.807222
rs,cerrca,Cërrca,00,,42.779722,20.453056
rs,cerrce,Cerrcë,00,,42.779722,20.453056
rs,cerroviq,Cerroviq,00,,42.587222,20.739167
rs,ceruvica,Ceruvica,00,,43.256111,21.171111
rs,cerven,Cërven,00,,43.045278,20.728056
rs,cervenik,Cërvenik,00,,43.045278,20.728056
rs,cesanovic,Cesanovic,00,,42.966389,20.652778
rs,cesanovice,Cesanovice,00,,42.966389,20.652778
rs,ceshan,Çeshan,00,,42.966389,20.652778
rs,ceshkove,Çeshkovë,00,,42.560278,20.526944
rs,cesko selo,Cesko Selo,00,,44.947222,21.370833
rs,ceskova,Ceskova,00,,42.560278,20.526944
rs,ceskovo,Ceskovo,00,,42.560278,20.526944
rs,cesljeva bara,Cesljeva Bara,00,,44.615833,21.4875
rs,cesta,Cesta,00,,43.430556,21.653889
rs,cestereg,Cestereg,00,,45.563611,20.531944
rs,cesterek,Cesterek,00,,45.563611,20.531944
rs,cestin,Cestin,00,,43.889167,20.815556
rs,cestobradica,Cestobradica,00,,43.918333,20.014444
rs,cestobrodica,Cestobrodica,00,,43.918333,20.014444
rs,cetanje,Cetanje,00,,43.564722,19.358611
rs,cetanovice,Cetanovice,00,,43.163611,20.105278
rs,ceteniste,Ceteniste,00,,44.464722,19.193889
rs,cetenovici,Cetenovici,00,,43.405833,20.110556
rs,ceterez,Ceterez,00,,44.368611,21.242778
rs,cetereze,Cetereze,00,,44.368611,21.242778
rs,cetkovina,Cetkovina,00,,43.458056,19.334722
rs,cetvorski kraj,Cetvorski Kraj,00,,44.322222,20.667778
rs,chabats,Chabats,00,,44.746667,19.69
rs,chalma,Chalma,00,,45.078889,19.506389
rs,charleville,Charleville,00,,45.827222,20.599167
rs,chichinda mare,Chichinda Mare,00,,45.829722,20.465278
rs,cib,Cib,00,,45.269444,19.525278
rs,cibukovac,Cibukovac,00,,43.721389,20.625833
rs,cibutkovica,Cibutkovica,00,,44.318889,20.240833
rs,cicevac,Cicevac,00,5031,43.720278,21.445833
rs,cicina,Cicina,00,,43.575833,21.645833
rs,cickovac,Cickovac,00,,43.729722,22.236389
rs,cickova,Cickova,00,,43.674167,19.939722
rs,cickovica,Cickovica,00,,42.4825,22.195556
rs,cickovo,Cickovo,00,,43.674167,19.939722
rs,cicovi,Cicovi,00,,45.713611,19.126111
rs,cifci mijalic,Cifci Mijalic,00,,42.758333,21
rs,ciflak,Ciflak,00,,42.377778,21.346111
rs,ciflik,Ciflik,00,,42.461389,20.5225
rs,ciga,Ciga,00,,42.709722,20.305556
rs,ciganlija,Ciganlija,00,,44.797778,19.434722
rs,cigan-mala,Cigan-Mala,00,,44.52,20.632222
rs,ciganska brodica,Ciganska Brodica,00,,44.503056,21.817778
rs,ciganska mahala,Ciganska Mahala,00,,42.629444,20.571667
rs,ciganska mala,Ciganska Mala,00,,44.563889,19.836111
rs,ciganske kuce,Ciganske Kuce,00,,44.600556,20.472778
rs,cigla,Cigla,00,,43.638333,19.526667
rs,ciglanske kuce,Ciglanske Kuce,00,,44.624722,20.497222
rs,cikalovo,Cikalovo,00,,42.654722,20.907778
rs,cikarici,Cikarici,00,,44.296667,19.222222
rs,cikatova,Çikatova,00,,42.654722,20.907778
rs,cikatove,Çikatovë,00,,42.654722,20.907778
rs,cikatove e vjeter,Çikatovë e Vjetër,00,,42.654722,20.907778
rs,cikatovo,Cikatovo,00,,42.654722,20.907778
rs,cikiljevina,Cikiljevina,00,,43.496389,19.785278
rs,ciklanje,Ciklanje,00,,42.57,22.386111
rs,ciklanska mahala,Ciklanska Mahala,00,,42.57,22.386111
rs,cikosevina,Cikosevina,00,,42.960556,20.276944
rs,cikota,Cikota,00,,44.483889,19.401667
rs,cikot,Cikot,00,,43.898611,21.092778
rs,cikote,Cikote,00,,43.550278,19.566389
rs,cikoti,Cikoti,00,,43.993333,19.850278
rs,ciln,Ciln,00,,42.337778,20.629722
rs,cimilj,Cimilj,00,,42.966111,20.938889
rs,cincar mahala,Cincar Mahala,00,,42.433889,21.835
rs,ciniglavci,Ciniglavci,00,,43.057222,22.718889
rs,cipaci,Cipaci,00,,42.669444,22.2975
rs,cipalji,Cipalji,00,,43.296111,20.058889
rs,cirez,Cirez,00,,42.715833,20.893611
rs,cirikovac,Cirikovac,00,,44.660556,21.186944
rs,cirinci,Cirinci,00,,42.941667,22.62
rs,cirjanici,Cirjanici,00,,43.810556,20.019722
rs,cirkovac,Cirkovac,00,,44.660556,21.186944
rs,cirkovice,Cirkovice,00,,43.241111,20.732778
rs,cirkovici,Cirkovici,00,,43.241111,20.732778
rs,cirljo,Cirljo,00,,43.487778,20.11
rs,cirluk,Cirluk,00,,43.181667,20.095
rs,cirova mehana,Cirova Mehana,00,,43.768611,20.458333
rs,citaci,Citaci,00,,42.788611,20.662222
rs,citak,Citak,00,,42.788611,20.662222
rs,citarci mala,Citarci Mala,00,,42.669444,22.2975
rs,citici,Citici,00,,43.823333,19.854167
rs,citluk,Citluk,00,,43.591667,21.278333
rs,civcici,Civcici,00,,42.393056,22.073333
rs,civijani,Civijani,00,,44.313611,19.460278
rs,civlaci,Civlaci,00,,42.469444,22.065
rs,civlak,Civlak,00,,42.559167,21.9375
rs,civljani,Civljani,00,,44.313611,19.460278
rs,civtici,Civtici,00,,44.546111,19.732222
rs,ckane,Ckane,00,,43.471667,19.656944
rs,ckanje,Ckanje,00,,43.471667,19.656944
rs,ckuljevici,Ckuljevici,00,,43.753889,20.593611
rs,cmanjke,Cmanjke,00,,42.997222,20.448889
rs,cnatovo,Cnatovo,00,,42.995278,22.153333
rs,coborszentmihaly,Coborszentmihály,00,,45.774167,19.112222
rs,cocinci,Cocinci,00,,42.457222,22.299167
rs,cojbasici,Cojbasici,00,,43.363056,20.133611
rs,coka,Coka,00,4617,45.9425,20.143333
rs,cokesina,Cokesina,00,,44.653056,19.390833
rs,cokljanci,Cokljanci,00,,42.414167,22.044444
rs,cokonjar,Cokonjar,00,,44.033333,22.35
rs,cokotar,Cokotar,00,,43.247222,20.923333
rs,cokot,Cokot,00,,43.305278,21.813611
rs,cokotin,Cokotin,00,,42.483333,21.483333
rs,cokovice,Cokovice,00,,43.166667,20.573056
rs,colakovica potok,Colakovica Potok,00,,44.613611,20.243056
rs,colakovic mahala,Colakovic Mahala,00,,42.78,20.735278
rs,colanici,Colanici,00,,43.521944,19.881667
rs,colica mala,Colica Mala,00,,44.554722,19.35
rs,colici,Colici,00,,43.506944,20.886389
rs,colicka mala,Colicka Mala,00,,44.526389,19.7925
rs,colovici,Colovici,00,,43.3675,20.139444
rs,colovina,Colovina,00,,43.520278,19.757222
rs,colovino,Colovino,00,,43.520278,19.757222
rs,comage,Comage,00,,43.315556,20.723333
rs,conak,Conak,00,,45.315,20.913611
rs,conopla,Conopla,00,,45.813333,19.251944
rs,conoplja,Conoplja,00,,45.813333,19.251944
rs,corbanova mahala,Corbanova Mahala,00,,42.651111,22.394722
rs,corbici,Corbici,00,,43.372778,20.545833
rs,corda,Corda,00,,42.496111,22.101389
rs,coronjici,Coronjici,00,,43.518056,19.890833
rs,corovici,Corovici,00,,43.774167,19.753889
rs,cortanovci,Cortanovci,00,,45.154444,20.020556
rs,cosici,Cosici,00,,43.153056,21.335
rs,cosina mahala,Cosina Mahala,00,,42.562778,22.278611
rs,cosinci,Cosinci,00,,42.489167,22.060278
rs,cosine kolibe,Cosine Kolibe,00,,44.631944,20.438056
rs,costeiu,Costeiu,00,,45.035278,21.377222
rs,covdin,Covdin,00,,44.253333,21.449167
rs,cpilje,Cpilje,00,,42.9575,20.577222
rs,crcevo,Crcevo,00,,43.311111,20.2625
rs,crepaja,Crepaja,00,4794,45.009444,20.635556
rs,crepinova mahala,Crepinova Mahala,00,,42.456111,22.324167
rs,crepulja,Crepulja,00,,42.875833,20.677778
rs,cresnevo,Cresnevo,00,,42.331111,22.433889
rs,crevenka,Crevenka,00,,45.658611,19.455556
rs,crganska mala,Crganska Mala,00,,44.580833,19.993611
rs,crkolez,Crkolez,00,,42.813056,20.633333
rs,crkovnica,Crkovnica,00,,43.122222,22.018611
rs,crkvenac,Crkvenac,00,,44.195556,21.185833
rs,crkvena mala,Crkvena Mala,00,,44.490833,20.978056
rs,crkvena vodica,Crkvena Vodica,00,,42.673333,21.053889
rs,crkveni toci,Crkveni Toci,00,,43.442778,19.555833
rs,crkvica,Crkvica,00,,43.026944,21.693889
rs,crkvina,Crkvina,00,,43.462222,19.7
rs,crkvine,Crkvine,00,,43.051667,20.3875
rs,crkviste,Crkviste,00,,43.090556,21.240833
rs,crljenac,Crljenac,00,,44.489722,21.368333
rs,crljeni,Crljeni,00,,44.383333,20.383333
rs,crmaic,Crmaiç,00,,42.4725,20.476389
rs,crmjan,Crmjan,00,,42.4725,20.476389
rs,crmljan,Crmljan,00,,42.4725,20.476389
rs,crmljane,Crmljane,00,,42.4725,20.476389
rs,crmljani,Crmljani,00,,42.4725,20.476389
rs,crmnjan,Crmnjan,00,,42.4725,20.476389
rs,crna bara,Crna Bara,00,,45.973056,20.275556
rs,crnabreg,Crnabreg,00,,42.529722,20.298056
rs,crnac,Crnac,00,,43.088056,20.675
rs,crna glava,Crna Glava,00,,43.371667,20.832222
rs,crnajka,Crnajka,00,,44.290278,22.146944
rs,crna peka,Crna Peka,00,,42.408056,22.294444
rs,crna reka,Crna Reka,00,,42.408056,22.294444
rs,crnatovo,Crnatovo,00,,42.995278,22.153333
rs,crna trava,Crna Trava,00,,42.807222,22.323333
rs,crnca,Crnca,00,,43.989444,21.152778
rs,crnce,Crnce,00,,42.779722,20.453056
rs,crnetici,Crnetici,00,,43.498889,19.403333
rs,crni breg,Crni Breg,00,,42.475,21.055833
rs,crnice,Crnice,00,,44.578056,21.2825
rs,crni kao,Crni Kao,00,,43.665278,21.617222
rs,crniljevo,Crniljevo,00,,44.467222,19.6275
rs,crnilo,Crnilo,00,,42.4575,21.199722
rs,crni lug,Crni Lug,00,,42.471389,21.881667
rs,crni vrh,Crni Vrh,00,,42.518056,22.134444
rs,crnja,Crnja,00,,45.723333,20.688611
rs,crnjevo,Crnjevo,00,,43.574444,20.255833
rs,crnobarski salas,Crnobarski Salas,00,,44.826111,19.392222
rs,crnobreg,Crnobreg,00,,42.526944,20.292222
rs,crnoca,Crnoca,00,,43.104167,20.381111
rs,crnoce,Crnoce,00,,43.104167,20.381111
rs,crnogorei,Crnogorei,00,,42.536944,21.619167
rs,crnoklisle,Crnoklisle,00,,43.234167,22.464722
rs,crnokliste,Crnokliste,00,,43.234167,22.464722
rs,crnokljiste,Crnokljiste,00,,43.234167,22.464722
rs,crnoljevica,Crnoljevica,00,,43.385278,22.190556
rs,crnoljevo,Crnoljevo,00,,42.4525,20.968056
rs,crnomasnica,Crnomasnica,00,,44.064722,22.546111
rs,crnosnica,Crnosnica,00,,42.458333,22.374722
rs,crnostica,Crnostica,00,,42.458333,22.374722
rs,crnotince,Crnotince,00,,42.358056,21.699722
rs,crnotravci,Crnotravci,00,,42.466389,21.914167
rs,crnovce,Crnovce,00,,42.414167,22.080833
rs,crnovrana,Crnovrana,00,,42.4775,20.688611
rs,crnovrane,Crnovrane,00,,42.4775,20.688611
rs,crnovrsam,Crnovrsam,00,,43.095833,20.432222
rs,crnugovici,Crnugovici,00,,43.537222,19.390833
rs,crnuzi,Crnuzi,00,,43.569167,19.510278
rs,cropule,Cropulë,00,,42.875833,20.677778
rs,crtenj,Crtenj,00,,43.394722,20.407222
rs,crvanj,Crvanj,00,,43.47,20.718889
rs,crvena crkva,Crvena Crkva,00,,44.900278,21.365278
rs,crvena jabuka,Crvena Jabuka,00,,42.903056,22.461667
rs,crvena reka,Crvena Reka,00,,43.271667,22.233333
rs,crvencevo,Crvencevo,00,,43.231389,22.498889
rs,crveni breg,Crveni Breg,00,,42.822778,22.195556
rs,crveni,Crveni,00,,43.045278,20.728056
rs,crveni grad,Crveni Grad,00,,42.435,22.270833
rs,crveni grad mahala,Crveni Grad Mahala,00,,42.467222,22.266944
rs,crvenje,Crvenje,00,,43.528889,22.264444
rs,crvenka,Crvenka,00,10147,45.658611,19.455556
rs,crvenkovci,Crvenkovci,00,,42.799444,22.281667
rs,crvodik mahala,Crvodik Mahala,00,,42.707222,21.290278
rs,crvsko,Crvsko,00,,43.109444,19.913611
rs,csalma,Csalma,00,,45.078889,19.506389
rs,csantaver,Csantavér,00,,45.920278,19.763056
rs,cseb,Cséb,00,,45.269444,19.525278
rs,csehfalva,Csehfalva,00,,44.947222,21.370833
rs,csenta,Csenta,00,,45.108333,20.387778
rs,csentej,Csentej,00,,45.108333,20.387778
rs,cserepalja,Cserépalja,00,,45.009444,20.635556
rs,csernye,Csernye,00,,45.723333,20.688611
rs,cservenka,Cservenka,00,,45.658611,19.455556
rs,cseszterek,Cseszterek,00,,45.563611,20.531944
rs,csoka,Csóka,00,,45.9425,20.143333
rs,csonoplya,Csonoplya,00,,45.813333,19.251944
rs,csontafejer,Csontafejér,00,,45.920278,19.763056
rs,csosztelek,Csosztelek,00,,45.563611,20.531944
rs,csurog,Csurog,00,,45.473056,20.071389
rs,cubin,Cubin,00,,44.7475,20.976111
rs,cubraci,Cubraci,00,,43.616667,19.8975
rs,cubra,Cubra,00,,44.188889,22.465278
rs,cubrelj,Cubrelj,00,,42.769167,20.739722
rs,cubura,Cubura,00,,43.331111,21.6175
rs,cucage,Cucage,00,,44.305833,20.815556
rs,cucaja,Cucaja,00,,42.5875,20.593889
rs,cucaj,Cucaj,00,,42.5875,20.593889
rs,cucale,Cucale,00,,43.323889,21.213333
rs,cucuge,Cucuge,00,,44.407778,19.975833
rs,cuculjaga,Cuculjaga,00,,42.533889,21.023889
rs,cuculljaaga,Çuçulljaaga,00,,42.533889,21.023889
rs,cucunje,Cucunje,00,,43.639722,21.831944
rs,cudak,Cudak,00,,43.660556,20.519722
rs,cudovo,Cudovo,00,,43.468611,19.298056
rs,cugurovska mala,Cugurovska Mala,00,,44.541944,19.414444
rs,cuka,Cuka,00,,43.531111,20.900556
rs,cukaj,Cukaj,00,,42.707222,20.053333
rs,cukarci,Cukarci,00,,42.409444,22.455556
rs,cukar,Cukar,00,,42.488056,22.119167
rs,cukarica,Cukarica,00,,44.7825,20.420278
rs,cukarka,Cukarka,00,,42.284167,21.700278
rs,cukavci,Cukavci,00,,43.576111,19.942778
rs,cukinska mahala,Cukinska Mahala,00,,42.41,22.018611
rs,cukljenik,Cukljenik,00,,42.869167,21.959167
rs,cukojevac,Cukojevac,00,,43.715,20.828889
rs,cukorovac,Cukorovac,00,,43.435,21.636111
rs,cukote,Cukote,00,,43.088056,20.273056
rs,cukovac,Cukovac,00,,42.525833,21.948333
rs,cukovine,Cukovine,00,,44.503333,19.653333
rs,cukurovac,Cukurovac,00,,43.435,21.636111
rs,culici,Culici,00,,43.843056,19.553611
rs,culija,Culija,00,,42.940278,20.431944
rs,culije,Culije,00,,42.940278,20.431944
rs,culine,Culine,00,,44.299444,19.189444
rs,culjkova,Culjkova,00,,42.592778,21.4375
rs,culjkova mahala,Culjkova Mahala,00,,42.592778,21.4375
rs,culjkovic,Culjkovic,00,,44.665278,19.545
rs,cumic,Cumic,00,,44.15,20.783333
rs,cumici,Cumici,00,,43.691667,19.804722
rs,cundrak,Cundrak,00,,43.112778,21.210556
rs,cungula,Cungula,00,,43.242222,21.295
rs,cupevac,Cupevac,00,,42.645,20.625278
rs,cupevaj,Cupevaj,00,,42.645,20.625278
rs,cupeve,Çupevë,00,,42.56,20.588056
rs,cupevo,Cupevo,00,,42.56,20.588056
rs,cupovac,Cupovac,00,,42.645,20.625278
rs,cuprija,Cuprija,02,20373,43.9275,21.37
rs,curcici,Curcici,00,,42.406111,21.918056
rs,curcije,Curcije,00,,43.742222,20.376667
rs,curcijska mahala,Curcijska Mahala,00,,42.415833,22.465833
rs,curciska mahala,Curciska Mahala,00,,42.609167,22.390278
rs,curdina,Curdina,00,,42.3075,20.418333
rs,curecka mahala,Curecka Mahala,00,,42.368333,21.549722
rs,curkovci,Curkovci,00,,42.689444,22.1875
rs,curkovica,Curkovica,00,,42.436944,22.005278
rs,curlina,Curlina,00,,43.26,21.886111
rs,curline,Curline,00,,43.26,21.886111
rs,curug,Curug,00,8876,45.473056,20.071389
rs,cuska,Cuska,00,,42.657222,20.338889
rs,custica,Custica,00,,43.361389,22.523056
rs,cuturini,Cuturini,00,,42.255833,21.025
rs,cvalikari,Cvalikari,00,,42.701667,22.253611
rs,cvatovac,Cvatovac,00,,44.483333,20.266667
rs,cvejica sokak,Cvejica Sokak,00,,44.703611,19.432778
